[{"id": "x0k5kFArHLijdY8-NEQ7Xg", "alias": "bengal-tiger-indian-food-new-york", "name": "Bengal Tiger Indian Food", "image_url": "https://s3-media2.fl.yelpcdn.com/bphoto/65Q6vtiAqLDVFLrvu0ZdZA/o.jpg", "is_closed": false, "url": "https://www.yelp.com/biz/bengal-tiger-indian-food-new-york?adjust_creative=uVENxkrx5WKqWp2fTdTrzg&utm_campaign=yelp_api_v3&utm_medium=api_v3_business_search&utm_source=uVENxkrx5WKqWp2fTdTrzg", "review_count": 2370, "categories": [{"alias": "indpak", "title": "Indian"}], "rating": 4.5, "coordinates": {"latitude": 40.763167, "longitude": -73.977131}, "transactions": ["pickup", "delivery"], "price": "$$", "location": {"address1": "58 W 56th St", "address2": "Fl 2", "address3": "", "city": "New York", "zip_code": "10019", "country": "US", "state": "NY", "display_address": ["58 W 56th St", "Fl 2", "New York, NY 10019"]}, "phone": "+12122652703", "display_phone": "(212) 265-2703", "distance": 347.92812342067185}, {"id": "3Lzq6WS7q0Cz9_RinS00OA", "alias": "mughlai-indian-cuisine-new-york-10", "name": "Mughlai Indian Cuisine", "image_url": "https://s3-media1.fl.yelpcdn.com/bphoto/lH_Wi84GuQYWcNLs-O0xwA/o.jpg", "is_closed": false, "url": "https://www.yelp.com/biz/mughlai-indian-cuisine-new-york-10?adjust_creative=uVENxkrx5WKqWp2fTdTrzg&utm_campaign=yelp_api_v3&utm_medium=api_v3_business_search&utm_source=uVENxkrx5WKqWp2fTdTrzg", "review_count": 8, "categories": [{"alias": "indpak", "title": "Indian"}], "rating": 4.9, "coordinates": {"latitude": 40.78477804313809, "longitude": -73.97319038849837}, "transactions": ["pickup", "delivery"], "location": {"address1": "489 Columbus Ave", "address2": "", "address3": null, "city": "New York", "zip_code": "10024", "country": "US", "state": "NY", "display_address": ["489 Columbus Ave", "New York, NY 10024"]}, "phone": "", "display_phone": "", "distance": 2767.6524108968288}, {"id": "Txm8KtUh9Mn2E7980jTr5g", "alias": "dhamaka-new-york", "name": "Dhamaka", "image_url": "https://s3-media1.fl.yelpcdn.com/bphoto/-Sp5A0npkHkp1aq-2lrcUg/o.jpg", "is_closed": false, "url": "https://www.yelp.com/biz/dhamaka-new-york?adjust_creative=uVENxkrx5WKqWp2fTdTrzg&utm_campaign=yelp_api_v3&utm_medium=api_v3_business_search&utm_source=uVENxkrx5WKqWp2fTdTrzg", "review_count": 474, "categories": [{"alias": "indpak", "title": "Indian"}], "rating": 3.8, "coordinates": {"latitude": 40.7180658, "longitude": -73.9881304}, "transactions": ["delivery"], "price": "$$$", "location": {"address1": "119 Delancey St", "address2": "Essex Market, Store  34", "address3": null, "city": "New York", "zip_code": "10002", "country": "US", "state": "NY", "display_address": ["119 Delancey St", "Essex Market, Store  34", "New York, NY 10002"]}, "phone": "+12122048616", "display_phone": "(212) 204-8616", "distance": 4756.470541125975}, {"id": "Xqk91WuhMeYS4pedccUYgA", "alias": "gazab-new-york", "name": "Gazab", "image_url": "https://s3-media3.fl.yelpcdn.com/bphoto/AuOMEQT6_UKD95-jNcYDLA/o.jpg", "is_closed": false, "url": "https://www.yelp.com/biz/gazab-new-york?adjust_creative=uVENxkrx5WKqWp2fTdTrzg&utm_campaign=yelp_api_v3&utm_medium=api_v3_business_search&utm_source=uVENxkrx5WKqWp2fTdTrzg", "review_count": 279, "categories": [{"alias": "indpak", "title": "Indian"}], "rating": 4.4, "coordinates": {"latitude": 40.72191, "longitude": -73.98666}, "transactions": ["pickup", "delivery"], "location": {"address1": "179 Essex St", "address2": "", "address3": null, "city": "New York", "zip_code": "10002", "country": "US", "state": "NY", "display_address": ["179 Essex St", "New York, NY 10002"]}, "phone": "+19173882664", "display_phone": "(917) 388-2664", "distance": 4313.1401359991}, {"id": "HEs6llkn3wIP1ATXeIZQew", "alias": "pippali-new-york", "name": "Pippali", "image_url": "https://s3-media1.fl.yelpcdn.com/bphoto/CHWpY5PW5Sd89khh8neo8g/o.jpg", "is_closed": false, "url": "https://www.yelp.com/biz/pippali-new-york?adjust_creative=uVENxkrx5WKqWp2fTdTrzg&utm_campaign=yelp_api_v3&utm_medium=api_v3_business_search&utm_source=uVENxkrx5WKqWp2fTdTrzg", "review_count": 905, "categories": [{"alias": "indpak", "title": "Indian"}], "rating": 4.1, "coordinates": {"latitude": 40.74233, "longitude": -73.98331}, "transactions": ["pickup", "restaurant_reservation", "delivery"], "price": "$$", "location": {"address1": "129 E 27th St", "address2": "", "address3": "", "city": "New York", "zip_code": "10016", "country": "US", "state": "NY", "display_address": ["129 E 27th St", "New York, NY 10016"]}, "phone": "+12126891999", "display_phone": "(212) 689-1999", "distance": 2027.80061226141}, {"id": "z2VXX7wGl8XZ6_oo9W3koA", "alias": "patiala-indian-grill-new-york", "name": "Patiala Indian Grill", "image_url": "https://s3-media2.fl.yelpcdn.com/bphoto/cFmz8IrIG6JtI6FN87ULZQ/o.jpg", "is_closed": false, "url": "https://www.yelp.com/biz/patiala-indian-grill-new-york?adjust_creative=uVENxkrx5WKqWp2fTdTrzg&utm_campaign=yelp_api_v3&utm_medium=api_v3_business_search&utm_source=uVENxkrx5WKqWp2fTdTrzg", "review_count": 651, "categories": [{"alias": "indpak", "title": "Indian"}], "rating": 4.3, "coordinates": {"latitude": 40.7534700430117, "longitude": -73.99595067259492}, "transactions": ["pickup", "delivery"], "price": "$$", "location": {"address1": "371 W 34th St", "address2": "", "address3": "", "city": "New York", "zip_code": "10001", "country": "US", "state": "NY", "display_address": ["371 W 34th St", "New York, NY 10001"]}, "phone": "+12125648255", "display_phone": "(212) 564-8255", "distance": 1650.1055071003714}, {"id": "t6PzD4uzBOfyCLcd_lT8cQ", "alias": "sathi-new-york", "name": "Sathi", "image_url": "https://s3-media2.fl.yelpcdn.com/bphoto/Dn6S00Ly7iatO434EMPqCw/o.jpg", "is_closed": false, "url": "https://www.yelp.com/biz/sathi-new-york?adjust_creative=uVENxkrx5WKqWp2fTdTrzg&utm_campaign=yelp_api_v3&utm_medium=api_v3_business_search&utm_source=uVENxkrx5WKqWp2fTdTrzg", "review_count": 319, "categories": [{"alias": "indpak", "title": "Indian"}, {"alias": "himalayan", "title": "Himalayan/Nepalese"}], "rating": 4.7, "coordinates": {"latitude": 40.73621, "longitude": -73.98528}, "transactions": ["restaurant_reservation", "pickup", "delivery"], "price": "$$", "location": {"address1": "216 3rd Ave", "address2": null, "address3": "", "city": "New York", "zip_code": "10003", "country": "US", "state": "NY", "display_address": ["216 3rd Ave", "New York, NY 10003"]}, "phone": "+12122603700", "display_phone": "(212) 260-3700", "distance": 2724.959030045109}, {"id": "1_pK5aQ47atF50oAKHADhA", "alias": "indian-accent-new-york", "name": "Indian Accent", "image_url": "https://s3-media2.fl.yelpcdn.com/bphoto/tnHSNwNMyTQVFgKtybK9SA/o.jpg", "is_closed": false, "url": "https://www.yelp.com/biz/indian-accent-new-york?adjust_creative=uVENxkrx5WKqWp2fTdTrzg&utm_campaign=yelp_api_v3&utm_medium=api_v3_business_search&utm_source=uVENxkrx5WKqWp2fTdTrzg", "review_count": 735, "categories": [{"alias": "indpak", "title": "Indian"}], "rating": 4.3, "coordinates": {"latitude": 40.7643344624229, "longitude": -73.9787312885132}, "transactions": ["pickup", "delivery"], "price": "$$$$", "location": {"address1": "123 W 56th St", "address2": "", "address3": "", "city": "New York", "zip_code": "10019", "country": "US", "state": "NY", "display_address": ["123 W 56th St", "New York, NY 10019"]}, "phone": "+12128428070", "display_phone": "(212) 842-8070", "distance": 458.4854192654005}, {"id": "jf3JRaxUYU93x8LFU-8gkA", "alias": "gupshup-new-york", "name": "GupShup", "image_url": "https://s3-media2.fl.yelpcdn.com/bphoto/GuGJeoIC7Vl6hH6Q7LYjWg/o.jpg", "is_closed": false, "url": "https://www.yelp.com/biz/gupshup-new-york?adjust_creative=uVENxkrx5WKqWp2fTdTrzg&utm_campaign=yelp_api_v3&utm_medium=api_v3_business_search&utm_source=uVENxkrx5WKqWp2fTdTrzg", "review_count": 734, "categories": [{"alias": "indpak", "title": "Indian"}, {"alias": "cocktailbars", "title": "Cocktail Bars"}, {"alias": "breakfast_brunch", "title": "Breakfast & Brunch"}], "rating": 4.0, "coordinates": {"latitude": 40.7368831, "longitude": -73.98762055398464}, "transactions": ["pickup", "delivery"], "price": "$$$", "location": {"address1": "115 E18th St", "address2": null, "address3": "", "city": "New York", "zip_code": "10003", "country": "US", "state": "NY", "display_address": ["115 E18th St", "New York, NY 10003"]}, "phone": "+12125187313", "display_phone": "(212) 518-7313", "distance": 2705.741379862745}, {"id": "9pMhRYYgV7E9L7pzECtJKA", "alias": "the-drunken-munkey-ues-new-york", "name": "The Drunken Munkey - UES", "image_url": "https://s3-media2.fl.yelpcdn.com/bphoto/GgyYVXAY1-AFFZHYeBa6dQ/o.jpg", "is_closed": false, "url": "https://www.yelp.com/biz/the-drunken-munkey-ues-new-york?adjust_creative=uVENxkrx5WKqWp2fTdTrzg&utm_campaign=yelp_api_v3&utm_medium=api_v3_business_search&utm_source=uVENxkrx5WKqWp2fTdTrzg", "review_count": 1385, "categories": [{"alias": "indpak", "title": "Indian"}, {"alias": "cocktailbars", "title": "Cocktail Bars"}], "rating": 4.3, "coordinates": {"latitude": 40.78098, "longitude": -73.94751}, "transactions": ["pickup", "restaurant_reservation", "delivery"], "price": "$$", "location": {"address1": "338 E 92nd St", "address2": null, "address3": "", "city": "New York", "zip_code": "10128", "country": "US", "state": "NY", "display_address": ["338 E 92nd St", "New York, NY 10128"]}, "phone": "+16468468986", "display_phone": "(646) 846-8986", "distance": 3466.9693248006906}, {"id": "objNX6cuj1JyUijFjw21Qw", "alias": "bombay-bistro-new-york-2", "name": "Bombay Bistro", "image_url": "https://s3-media3.fl.yelpcdn.com/bphoto/V-GwYZMTRDt8B1Dz7ke5UA/o.jpg", "is_closed": false, "url": "https://www.yelp.com/biz/bombay-bistro-new-york-2?adjust_creative=uVENxkrx5WKqWp2fTdTrzg&utm_campaign=yelp_api_v3&utm_medium=api_v3_business_search&utm_source=uVENxkrx5WKqWp2fTdTrzg", "review_count": 283, "categories": [{"alias": "indpak", "title": "Indian"}, {"alias": "cocktailbars", "title": "Cocktail Bars"}], "rating": 4.4, "coordinates": {"latitude": 40.73136, "longitude": -74.00253}, "transactions": ["pickup", "delivery"], "price": "$$", "location": {"address1": "31 Cornelia St", "address2": "", "address3": null, "city": "New York", "zip_code": "10014", "country": "US", "state": "NY", "display_address": ["31 Cornelia St", "New York, NY 10014"]}, "phone": "+16468503719", "display_phone": "(646) 850-3719", "distance": 3793.7375603213477}, {"id": "juAQ4DHCW_24LpV1T1JmBA", "alias": "patiala-indian-grill-and-bar-new-york", "name": "Patiala Indian Grill  & Bar", "image_url": "https://s3-media2.fl.yelpcdn.com/bphoto/XBs3LhzRZ6vdcs5Z93-a2g/o.jpg", "is_closed": false, "url": "https://www.yelp.com/biz/patiala-indian-grill-and-bar-new-york?adjust_creative=uVENxkrx5WKqWp2fTdTrzg&utm_campaign=yelp_api_v3&utm_medium=api_v3_business_search&utm_source=uVENxkrx5WKqWp2fTdTrzg", "review_count": 21, "categories": [{"alias": "indpak", "title": "Indian"}, {"alias": "seafood", "title": "Seafood"}, {"alias": "cocktailbars", "title": "Cocktail Bars"}], "rating": 4.4, "coordinates": {"latitude": 40.752147, "longitude": -73.991864}, "transactions": ["delivery"], "location": {"address1": "240 W 35th St", "address2": "", "address3": null, "city": "New York", "zip_code": "10001", "country": "US", "state": "NY", "display_address": ["240 W 35th St", "New York, NY 10001"]}, "phone": "+12125648255", "display_phone": "(212) 564-8255", "distance": 1453.407895575891}, {"id": "mZALre3ahuetu5X8_uUJew", "alias": "thelewala-new-york", "name": "Thelewala", "image_url": "https://s3-media2.fl.yelpcdn.com/bphoto/5KgclMDut5vG1d_nrvW7Yw/o.jpg", "is_closed": false, "url": "https://www.yelp.com/biz/thelewala-new-york?adjust_creative=uVENxkrx5WKqWp2fTdTrzg&utm_campaign=yelp_api_v3&utm_medium=api_v3_business_search&utm_source=uVENxkrx5WKqWp2fTdTrzg", "review_count": 546, "categories": [{"alias": "indpak", "title": "Indian"}], "rating": 4.1, "coordinates": {"latitude": 40.72963, "longitude": -74.00068}, "transactions": ["pickup", "delivery"], "price": "$", "location": {"address1": "112 Macdougal St", "address2": "", "address3": "", "city": "New York", "zip_code": "10012", "country": "US", "state": "NY", "display_address": ["112 Macdougal St", "New York, NY 10012"]}, "phone": "+12126149100", "display_phone": "(212) 614-9100", "distance": 3880.6838740976214}, {"id": "IysZ64t48AedrhWfz3WJGQ", "alias": "cloves-indian-cuisine-new-york-2", "name": "Cloves Indian Cuisine", "image_url": "https://s3-media1.fl.yelpcdn.com/bphoto/6A5nzyLwmGAcXF1KPn94uQ/o.jpg", "is_closed": false, "url": "https://www.yelp.com/biz/cloves-indian-cuisine-new-york-2?adjust_creative=uVENxkrx5WKqWp2fTdTrzg&utm_campaign=yelp_api_v3&utm_medium=api_v3_business_search&utm_source=uVENxkrx5WKqWp2fTdTrzg", "review_count": 12, "categories": [{"alias": "indpak", "title": "Indian"}], "rating": 4.9, "coordinates": {"latitude": 40.74367, "longitude": -73.98612}, "transactions": ["restaurant_reservation", "delivery", "pickup"], "location": {"address1": "66 Madison Ave", "address2": "", "address3": null, "city": "New York", "zip_code": "10016", "country": "US", "state": "NY", "display_address": ["66 Madison Ave", "New York, NY 10016"]}, "phone": "+16463989444", "display_phone": "(646) 398-9444", "distance": 1942.624104623924}, {"id": "qhXIW0LDT4XsoN2IE6dZHg", "alias": "ahimsa-new-york-5", "name": "Ahimsa", "image_url": "https://s3-media2.fl.yelpcdn.com/bphoto/5seQWNcu8rGqYXf_EBUC8g/o.jpg", "is_closed": false, "url": "https://www.yelp.com/biz/ahimsa-new-york-5?adjust_creative=uVENxkrx5WKqWp2fTdTrzg&utm_campaign=yelp_api_v3&utm_medium=api_v3_business_search&utm_source=uVENxkrx5WKqWp2fTdTrzg", "review_count": 228, "categories": [{"alias": "indpak", "title": "Indian"}, {"alias": "vegetarian", "title": "Vegetarian"}, {"alias": "kosher", "title": "Kosher"}], "rating": 4.4, "coordinates": {"latitude": 40.7478959, "longitude": -73.9758638}, "transactions": ["pickup", "delivery"], "price": "$$", "location": {"address1": "204 E 38th St", "address2": "", "address3": null, "city": "New York", "zip_code": "10016", "country": "US", "state": "NY", "display_address": ["204 E 38th St", "New York, NY 10016"]}, "phone": "+12122282022", "display_phone": "(212) 228-2022", "distance": 1387.696124211735}, {"id": "3hlAeWgSKAnSQ1tg8k8D8g", "alias": "alachi-masala-new-york-3", "name": "Alachi Masala", "image_url": "https://s3-media2.fl.yelpcdn.com/bphoto/6h_KJ0SWdJKytw58coTezw/o.jpg", "is_closed": false, "url": "https://www.yelp.com/biz/alachi-masala-new-york-3?adjust_creative=uVENxkrx5WKqWp2fTdTrzg&utm_campaign=yelp_api_v3&utm_medium=api_v3_business_search&utm_source=uVENxkrx5WKqWp2fTdTrzg", "review_count": 290, "categories": [{"alias": "indpak", "title": "Indian"}], "rating": 3.9, "coordinates": {"latitude": 40.78620473306449, "longitude": -73.97648420341335}, "transactions": ["pickup", "delivery"], "price": "$", "location": {"address1": "488 Amsterdam Ave", "address2": "", "address3": "", "city": "New York", "zip_code": "10024", "country": "US", "state": "NY", "display_address": ["488 Amsterdam Ave", "New York, NY 10024"]}, "phone": "+12128740737", "display_phone": "(212) 874-0737", "distance": 2894.9158738499223}, {"id": "_7BGw3YFNOTzP1Www3zB7g", "alias": "mughlai-grill-new-york", "name": "Mughlai Grill", "image_url": "https://s3-media3.fl.yelpcdn.com/bphoto/R0MIGOkyV5I4sDlZLRVK3A/o.jpg", "is_closed": false, "url": "https://www.yelp.com/biz/mughlai-grill-new-york?adjust_creative=uVENxkrx5WKqWp2fTdTrzg&utm_campaign=yelp_api_v3&utm_medium=api_v3_business_search&utm_source=uVENxkrx5WKqWp2fTdTrzg", "review_count": 542, "categories": [{"alias": "indpak", "title": "Indian"}], "rating": 4.6, "coordinates": {"latitude": 40.7210905, "longitude": -73.9840446}, "transactions": ["pickup", "restaurant_reservation", "delivery"], "price": "$$", "location": {"address1": "6 Clinton St", "address2": "", "address3": null, "city": "New York", "zip_code": "10002", "country": "US", "state": "NY", "display_address": ["6 Clinton St", "New York, NY 10002"]}, "phone": "+12125332828", "display_phone": "(212) 533-2828", "distance": 4375.434923240767}, {"id": "izRJeBfDQYJmd6ibIQ6Mfg", "alias": "mughlai-indian-cuisine-new-york-4", "name": "Mughlai Indian Cuisine", "image_url": "https://s3-media4.fl.yelpcdn.com/bphoto/pY33lEN22h9TnvJxaKJSVg/o.jpg", "is_closed": false, "url": "https://www.yelp.com/biz/mughlai-indian-cuisine-new-york-4?adjust_creative=uVENxkrx5WKqWp2fTdTrzg&utm_campaign=yelp_api_v3&utm_medium=api_v3_business_search&utm_source=uVENxkrx5WKqWp2fTdTrzg", "review_count": 629, "categories": [{"alias": "indpak", "title": "Indian"}], "rating": 4.3, "coordinates": {"latitude": 40.78002, "longitude": -73.94978}, "transactions": ["pickup", "delivery"], "price": "$$", "location": {"address1": "1724 2nd Ave", "address2": "", "address3": "", "city": "New York", "zip_code": "10128", "country": "US", "state": "NY", "display_address": ["1724 2nd Ave", "New York, NY 10128"]}, "phone": "+12127226262", "display_phone": "(212) 722-6262", "distance": 3270.4180035656623}, {"id": "kS2CP48K66yL2TwIhUqy_A", "alias": "tamarind-new-york-4", "name": "Tamarind", "image_url": "https://s3-media3.fl.yelpcdn.com/bphoto/0zgXNwL18E52i95zE7CwvQ/o.jpg", "is_closed": false, "url": "https://www.yelp.com/biz/tamarind-new-york-4?adjust_creative=uVENxkrx5WKqWp2fTdTrzg&utm_campaign=yelp_api_v3&utm_medium=api_v3_business_search&utm_source=uVENxkrx5WKqWp2fTdTrzg", "review_count": 1146, "categories": [{"alias": "indpak", "title": "Indian"}], "rating": 3.9, "coordinates": {"latitude": 40.71909, "longitude": -74.00892}, "transactions": ["pickup", "delivery"], "price": "$$$", "location": {"address1": "99 Hudson St", "address2": "", "address3": "", "city": "New York", "zip_code": "10013", "country": "US", "state": "NY", "display_address": ["99 Hudson St", "New York, NY 10013"]}, "phone": "+12127759000", "display_phone": "(212) 775-9000", "distance": 5249.920396267827}, {"id": "xWVHj2XNcxEg79Nkb5Zb6Q", "alias": "semma-new-york-2", "name": "Semma", "image_url": "https://s3-media1.fl.yelpcdn.com/bphoto/BO7SVHMd3GTMRFuHgpN2LA/o.jpg", "is_closed": false, "url": "https://www.yelp.com/biz/semma-new-york-2?adjust_creative=uVENxkrx5WKqWp2fTdTrzg&utm_campaign=yelp_api_v3&utm_medium=api_v3_business_search&utm_source=uVENxkrx5WKqWp2fTdTrzg", "review_count": 414, "categories": [{"alias": "indpak", "title": "Indian"}, {"alias": "wine_bars", "title": "Wine Bars"}, {"alias": "cocktailbars", "title": "Cocktail Bars"}], "rating": 4.1, "coordinates": {"latitude": 40.736054206102615, "longitude": -74.0005639}, "transactions": [], "price": "$$$$", "location": {"address1": "60 Greenwich Ave", "address2": "", "address3": null, "city": "New York", "zip_code": "10011", "country": "US", "state": "NY", "display_address": ["60 Greenwich Ave", "New York, NY 10011"]}, "phone": "+12123738900", "display_phone": "(212) 373-8900", "distance": 3266.8038740954275}, {"id": "jYhbUh1TV7SCfPxjIhVpcg", "alias": "baar-baar-new-york-2", "name": "Baar Baar", "image_url": "https://s3-media2.fl.yelpcdn.com/bphoto/QOh0iMXy-09xT50juVxYnw/o.jpg", "is_closed": false, "url": "https://www.yelp.com/biz/baar-baar-new-york-2?adjust_creative=uVENxkrx5WKqWp2fTdTrzg&utm_campaign=yelp_api_v3&utm_medium=api_v3_business_search&utm_source=uVENxkrx5WKqWp2fTdTrzg", "review_count": 1268, "categories": [{"alias": "gastropubs", "title": "Gastropubs"}, {"alias": "indpak", "title": "Indian"}, {"alias": "cocktailbars", "title": "Cocktail Bars"}], "rating": 3.9, "coordinates": {"latitude": 40.7244378855031, "longitude": -73.9915524}, "transactions": ["pickup", "delivery"], "price": "$$$", "location": {"address1": "13 E 1st St", "address2": "", "address3": "", "city": "New York", "zip_code": "10003", "country": "US", "state": "NY", "display_address": ["13 E 1st St", "New York, NY 10003"]}, "phone": "+12122281200", "display_phone": "(212) 228-1200", "distance": 4127.388685405502}, {"id": "ePn4BwyXeY8NKN-MWSgfrQ", "alias": "kebab-aur-sharab-new-york", "name": "Kebab Aur Sharab", "image_url": "https://s3-media3.fl.yelpcdn.com/bphoto/167g-m8TvaEmb7F3EE9hAQ/o.jpg", "is_closed": false, "url": "https://www.yelp.com/biz/kebab-aur-sharab-new-york?adjust_creative=uVENxkrx5WKqWp2fTdTrzg&utm_campaign=yelp_api_v3&utm_medium=api_v3_business_search&utm_source=uVENxkrx5WKqWp2fTdTrzg", "review_count": 131, "categories": [{"alias": "indpak", "title": "Indian"}, {"alias": "kebab", "title": "Kebab"}, {"alias": "cocktailbars", "title": "Cocktail Bars"}], "rating": 4.0, "coordinates": {"latitude": 40.77951, "longitude": -73.98331}, "transactions": [], "location": {"address1": "247 W 72nd St", "address2": null, "address3": "", "city": "New York", "zip_code": "10023", "country": "US", "state": "NY", "display_address": ["247 W 72nd St", "New York, NY 10023"]}, "phone": "+12125405247", "display_phone": "(212) 540-5247", "distance": 2189.908767413801}, {"id": "XLEdQl5s1bO5Iu43W_c96Q", "alias": "muna-new-york-2", "name": "Muna", "image_url": "https://s3-media2.fl.yelpcdn.com/bphoto/NM7mXPWqmNLbkVGB_pWL6w/o.jpg", "is_closed": false, "url": "https://www.yelp.com/biz/muna-new-york-2?adjust_creative=uVENxkrx5WKqWp2fTdTrzg&utm_campaign=yelp_api_v3&utm_medium=api_v3_business_search&utm_source=uVENxkrx5WKqWp2fTdTrzg", "review_count": 68, "categories": [{"alias": "himalayan", "title": "Himalayan/Nepalese"}, {"alias": "indpak", "title": "Indian"}], "rating": 4.7, "coordinates": {"latitude": 40.753509, "longitude": -73.973515}, "transactions": ["pickup", "delivery"], "location": {"address1": "152 East 46th St", "address2": null, "address3": "", "city": "New York", "zip_code": "10017", "country": "US", "state": "NY", "display_address": ["152 East 46th St", "New York, NY 10017"]}, "phone": "+16463987960", "display_phone": "(646) 398-7960", "distance": 854.7187286883661}, {"id": "fCxjrytrEw_l9vGjSCzszg", "alias": "paisley-new-york-2", "name": "Paisley", "image_url": "https://s3-media4.fl.yelpcdn.com/bphoto/0Q6wJhgNByrUiAXHznRTFw/o.jpg", "is_closed": false, "url": "https://www.yelp.com/biz/paisley-new-york-2?adjust_creative=uVENxkrx5WKqWp2fTdTrzg&utm_campaign=yelp_api_v3&utm_medium=api_v3_business_search&utm_source=uVENxkrx5WKqWp2fTdTrzg", "review_count": 109, "categories": [{"alias": "indpak", "title": "Indian"}], "rating": 4.3, "coordinates": {"latitude": 40.722387, "longitude": -74.0095662}, "transactions": ["restaurant_reservation", "delivery", "pickup"], "location": {"address1": "429 Greenwich St", "address2": "", "address3": null, "city": "New York", "zip_code": "10013", "country": "US", "state": "NY", "display_address": ["429 Greenwich St", "New York, NY 10013"]}, "phone": "+12122748003", "display_phone": "(212) 274-8003", "distance": 4954.053689080593}, {"id": "7VIUu8ay754GoUYEpsmxOA", "alias": "jazba-new-york", "name": "Jazba", "image_url": "https://s3-media2.fl.yelpcdn.com/bphoto/6ddz7I6MjaIfKu5OnBNn5g/o.jpg", "is_closed": false, "url": "https://www.yelp.com/biz/jazba-new-york?adjust_creative=uVENxkrx5WKqWp2fTdTrzg&utm_campaign=yelp_api_v3&utm_medium=api_v3_business_search&utm_source=uVENxkrx5WKqWp2fTdTrzg", "review_count": 103, "categories": [{"alias": "indpak", "title": "Indian"}, {"alias": "wine_bars", "title": "Wine Bars"}, {"alias": "cocktailbars", "title": "Cocktail Bars"}], "rating": 4.4, "coordinates": {"latitude": 40.731701, "longitude": -73.98585}, "transactions": ["pickup", "delivery"], "location": {"address1": "207 2nd Ave", "address2": "", "address3": null, "city": "New York", "zip_code": "10003", "country": "US", "state": "NY", "display_address": ["207 2nd Ave", "New York, NY 10003"]}, "phone": "+16468613343", "display_phone": "(646) 861-3343", "distance": 3230.1848088259835}, {"id": "ut-560tVcs2g-ZU0Y_qqHQ", "alias": "saar-indian-bistro-new-york", "name": "Saar Indian Bistro", "image_url": "https://s3-media1.fl.yelpcdn.com/bphoto/Qd0Go0DPCXMdZhvBFUUWFg/o.jpg", "is_closed": false, "url": "https://www.yelp.com/biz/saar-indian-bistro-new-york?adjust_creative=uVENxkrx5WKqWp2fTdTrzg&utm_campaign=yelp_api_v3&utm_medium=api_v3_business_search&utm_source=uVENxkrx5WKqWp2fTdTrzg", "review_count": 418, "categories": [{"alias": "indpak", "title": "Indian"}], "rating": 4.4, "coordinates": {"latitude": 40.7626659, "longitude": -73.9847093}, "transactions": ["pickup", "delivery"], "price": "$$", "location": {"address1": "241 W 51st St", "address2": "", "address3": null, "city": "New York", "zip_code": "10019", "country": "US", "state": "NY", "display_address": ["241 W 51st St", "New York, NY 10019"]}, "phone": "+16466092142", "display_phone": "(646) 609-2142", "distance": 598.7188422073039}, {"id": "eTzH9lmkmouNlmuJ77i8Ow", "alias": "angaar-new-york-2", "name": "Angaar", "image_url": "https://s3-media4.fl.yelpcdn.com/bphoto/agw0avYXZvmd4AZgrgValQ/o.jpg", "is_closed": false, "url": "https://www.yelp.com/biz/angaar-new-york-2?adjust_creative=uVENxkrx5WKqWp2fTdTrzg&utm_campaign=yelp_api_v3&utm_medium=api_v3_business_search&utm_source=uVENxkrx5WKqWp2fTdTrzg", "review_count": 209, "categories": [{"alias": "indpak", "title": "Indian"}], "rating": 4.2, "coordinates": {"latitude": 40.7782, "longitude": -73.97802}, "transactions": ["pickup", "delivery"], "price": "$$", "location": {"address1": "283 Columbus Ave", "address2": "", "address3": null, "city": "New York", "zip_code": "10023", "country": "US", "state": "NY", "display_address": ["283 Columbus Ave", "New York, NY 10023"]}, "phone": "+12123934040", "display_phone": "(212) 393-4040", "distance": 2005.6461524152623}, {"id": "QqrEF8_ZQCGi63cL10J5oA", "alias": "chola-new-york-3", "name": "Chola", "image_url": "https://s3-media2.fl.yelpcdn.com/bphoto/sES9shU8nbErVX_saLRRgA/o.jpg", "is_closed": false, "url": "https://www.yelp.com/biz/chola-new-york-3?adjust_creative=uVENxkrx5WKqWp2fTdTrzg&utm_campaign=yelp_api_v3&utm_medium=api_v3_business_search&utm_source=uVENxkrx5WKqWp2fTdTrzg", "review_count": 683, "categories": [{"alias": "indpak", "title": "Indian"}, {"alias": "soup", "title": "Soup"}, {"alias": "seafood", "title": "Seafood"}], "rating": 4.0, "coordinates": {"latitude": 40.76016, "longitude": -73.96582}, "transactions": ["pickup", "delivery"], "price": "$$", "location": {"address1": "232 E 58th St", "address2": "", "address3": "", "city": "New York", "zip_code": "10022", "country": "US", "state": "NY", "display_address": ["232 E 58th St", "New York, NY 10022"]}, "phone": "+12126884619", "display_phone": "(212) 688-4619", "distance": 1066.9492963124237}, {"id": "iXSuNKKUBIrBX7zUerlQDQ", "alias": "benares-new-york-3", "name": "Benares", "image_url": "https://s3-media3.fl.yelpcdn.com/bphoto/02ev2tUDuz86hPhPxMEgFQ/o.jpg", "is_closed": false, "url": "https://www.yelp.com/biz/benares-new-york-3?adjust_creative=uVENxkrx5WKqWp2fTdTrzg&utm_campaign=yelp_api_v3&utm_medium=api_v3_business_search&utm_source=uVENxkrx5WKqWp2fTdTrzg", "review_count": 660, "categories": [{"alias": "indpak", "title": "Indian"}], "rating": 4.0, "coordinates": {"latitude": 40.71415, "longitude": -74.009209}, "transactions": ["pickup", "delivery"], "price": "$$", "location": {"address1": "45 Murray St", "address2": "", "address3": null, "city": "New York", "zip_code": "10007", "country": "US", "state": "NY", "display_address": ["45 Murray St", "New York, NY 10007"]}, "phone": "+12127664900", "display_phone": "(212) 766-4900", "distance": 5738.544215349666}, {"id": "u1gdMF6vMCdwCilQ6vgyfw", "alias": "honest-new-york", "name": "Honest", "image_url": "https://s3-media4.fl.yelpcdn.com/bphoto/YjLPopNY7KLzAo_X4PsE3A/o.jpg", "is_closed": false, "url": "https://www.yelp.com/biz/honest-new-york?adjust_creative=uVENxkrx5WKqWp2fTdTrzg&utm_campaign=yelp_api_v3&utm_medium=api_v3_business_search&utm_source=uVENxkrx5WKqWp2fTdTrzg", "review_count": 59, "categories": [{"alias": "indpak", "title": "Indian"}], "rating": 4.3, "coordinates": {"latitude": 40.72887, "longitude": -74.00082}, "transactions": ["pickup", "delivery"], "price": "$$", "location": {"address1": "176 Bleecker St", "address2": "", "address3": null, "city": "New York", "zip_code": "10012", "country": "US", "state": "NY", "display_address": ["176 Bleecker St", "New York, NY 10012"]}, "phone": "+19172612610", "display_phone": "(917) 261-2610", "distance": 3963.0488544986074}, {"id": "_R6EjbrynW_LFnmWoRqgww", "alias": "surya-madam-ji-new-york", "name": "Surya - Madam Ji", "image_url": "https://s3-media2.fl.yelpcdn.com/bphoto/hQVRvDKO8k5z0UD8711ngQ/o.jpg", "is_closed": false, "url": "https://www.yelp.com/biz/surya-madam-ji-new-york?adjust_creative=uVENxkrx5WKqWp2fTdTrzg&utm_campaign=yelp_api_v3&utm_medium=api_v3_business_search&utm_source=uVENxkrx5WKqWp2fTdTrzg", "review_count": 299, "categories": [{"alias": "indpak", "title": "Indian"}, {"alias": "cocktailbars", "title": "Cocktail Bars"}, {"alias": "wine_bars", "title": "Wine Bars"}], "rating": 3.6, "coordinates": {"latitude": 40.7281, "longitude": -73.99963}, "transactions": ["pickup", "delivery"], "price": "$$", "location": {"address1": "154 Bleecker St", "address2": "", "address3": "", "city": "New York", "zip_code": "10012", "country": "US", "state": "NY", "display_address": ["154 Bleecker St", "New York, NY 10012"]}, "phone": "+12128751405", "display_phone": "(212) 875-1405", "distance": 3980.592816292275}, {"id": "A-ert0jDRBfku9ogyW_mEg", "alias": "spice-symphony-new-york-3", "name": "Spice Symphony", "image_url": "https://s3-media1.fl.yelpcdn.com/bphoto/ooBprHe-wyNb1dwvd1qhOA/o.jpg", "is_closed": false, "url": "https://www.yelp.com/biz/spice-symphony-new-york-3?adjust_creative=uVENxkrx5WKqWp2fTdTrzg&utm_campaign=yelp_api_v3&utm_medium=api_v3_business_search&utm_source=uVENxkrx5WKqWp2fTdTrzg", "review_count": 667, "categories": [{"alias": "chinese", "title": "Chinese"}, {"alias": "indpak", "title": "Indian"}, {"alias": "cocktailbars", "title": "Cocktail Bars"}], "rating": 4.4, "coordinates": {"latitude": 40.7558937072754, "longitude": -73.9715347290039}, "transactions": ["pickup", "delivery"], "price": "$$", "location": {"address1": "150 E 50th St", "address2": "", "address3": null, "city": "New York", "zip_code": "10022", "country": "US", "state": "NY", "display_address": ["150 E 50th St", "New York, NY 10022"]}, "phone": "+12123004869", "display_phone": "(212) 300-4869", "distance": 755.21739977009}, {"id": "CVpha6hKVu_r1lx6JxNIPg", "alias": "veeray-da-dhaba-new-york", "name": "Veeray da Dhaba", "image_url": "https://s3-media3.fl.yelpcdn.com/bphoto/wJUtPDVM0nt7YTanUEpG2Q/o.jpg", "is_closed": false, "url": "https://www.yelp.com/biz/veeray-da-dhaba-new-york?adjust_creative=uVENxkrx5WKqWp2fTdTrzg&utm_campaign=yelp_api_v3&utm_medium=api_v3_business_search&utm_source=uVENxkrx5WKqWp2fTdTrzg", "review_count": 115, "categories": [{"alias": "indpak", "title": "Indian"}], "rating": 4.5, "coordinates": {"latitude": 40.730819, "longitude": -73.982723}, "transactions": ["pickup", "delivery"], "location": {"address1": "222 1st Ave", "address2": null, "address3": "", "city": "New York", "zip_code": "10009", "country": "US", "state": "NY", "display_address": ["222 1st Ave", "New York, NY 10009"]}, "phone": "+12127771420", "display_phone": "(212) 777-1420", "distance": 3290.630229669704}, {"id": "RARUAVWONyRQovr0D6TGQg", "alias": "baazi-new-york-2", "name": "Baazi", "image_url": "https://s3-media3.fl.yelpcdn.com/bphoto/GcGYn5V-88IFV0C3ku40nw/o.jpg", "is_closed": false, "url": "https://www.yelp.com/biz/baazi-new-york-2?adjust_creative=uVENxkrx5WKqWp2fTdTrzg&utm_campaign=yelp_api_v3&utm_medium=api_v3_business_search&utm_source=uVENxkrx5WKqWp2fTdTrzg", "review_count": 75, "categories": [{"alias": "indpak", "title": "Indian"}], "rating": 3.9, "coordinates": {"latitude": 40.7955035, "longitude": -73.9708505}, "transactions": ["pickup", "delivery"], "location": {"address1": "2588 Broadway", "address2": "", "address3": null, "city": "New York", "zip_code": "10025", "country": "US", "state": "NY", "display_address": ["2588 Broadway", "New York, NY 10025"]}, "phone": "+16468613859", "display_phone": "(646) 861-3859", "distance": 3987.0800227226528}, {"id": "50eKjWOB-H9iuo1ocACOaQ", "alias": "imli-urban-indian-food-new-york-3", "name": "Imli Urban Indian Food", "image_url": "https://s3-media1.fl.yelpcdn.com/bphoto/ITX2Be9adIEnNydLdr4D4A/o.jpg", "is_closed": false, "url": "https://www.yelp.com/biz/imli-urban-indian-food-new-york-3?adjust_creative=uVENxkrx5WKqWp2fTdTrzg&utm_campaign=yelp_api_v3&utm_medium=api_v3_business_search&utm_source=uVENxkrx5WKqWp2fTdTrzg", "review_count": 259, "categories": [{"alias": "indpak", "title": "Indian"}, {"alias": "cocktailbars", "title": "Cocktail Bars"}], "rating": 4.3, "coordinates": {"latitude": 40.7616660604253, "longitude": -73.9601389691234}, "transactions": ["pickup", "delivery"], "price": "$$", "location": {"address1": "1136 1st Ave", "address2": "", "address3": "", "city": "New York", "zip_code": "10065", "country": "US", "state": "NY", "display_address": ["1136 1st Ave", "New York, NY 10065"]}, "phone": "+12122560073", "display_phone": "(212) 256-0073", "distance": 1554.8553250962846}, {"id": "XKy4Cy4uNgO7rxhH4yFJQQ", "alias": "mughlai-indian-cuisine-new-york-3", "name": "Mughlai Indian Cuisine", "image_url": "https://s3-media3.fl.yelpcdn.com/bphoto/Z2sYUaOOYIWEFHanImNtNQ/o.jpg", "is_closed": false, "url": "https://www.yelp.com/biz/mughlai-indian-cuisine-new-york-3?adjust_creative=uVENxkrx5WKqWp2fTdTrzg&utm_campaign=yelp_api_v3&utm_medium=api_v3_business_search&utm_source=uVENxkrx5WKqWp2fTdTrzg", "review_count": 469, "categories": [{"alias": "indpak", "title": "Indian"}], "rating": 4.2, "coordinates": {"latitude": 40.7397599, "longitude": -73.98226}, "transactions": ["pickup", "delivery"], "price": "$$", "location": {"address1": "329 3rd Ave", "address2": null, "address3": "", "city": "New York", "zip_code": "10010", "country": "US", "state": "NY", "display_address": ["329 3rd Ave", "New York, NY 10010"]}, "phone": "+12128890909", "display_phone": "(212) 889-0909", "distance": 2298.043745672266}, {"id": "UiG3MlLDMMZp31XDBM2kvA", "alias": "karahi-indian-cuisine-new-york-3", "name": "Karahi Indian Cuisine", "image_url": "https://s3-media2.fl.yelpcdn.com/bphoto/V27DdNNiVjqMZFF_LcccRA/o.jpg", "is_closed": false, "url": "https://www.yelp.com/biz/karahi-indian-cuisine-new-york-3?adjust_creative=uVENxkrx5WKqWp2fTdTrzg&utm_campaign=yelp_api_v3&utm_medium=api_v3_business_search&utm_source=uVENxkrx5WKqWp2fTdTrzg", "review_count": 114, "categories": [{"alias": "indpak", "title": "Indian"}], "rating": 4.6, "coordinates": {"latitude": 40.765667, "longitude": -73.987595}, "transactions": ["pickup", "delivery"], "location": {"address1": "803 9th Ave", "address2": "", "address3": null, "city": "New York", "zip_code": "10019", "country": "US", "state": "NY", "display_address": ["803 9th Ave", "New York, NY 10019"]}, "phone": "+12124591515", "display_phone": "(212) 459-1515", "distance": 976.8437477843773}, {"id": "m5Whyz8O8jM4DrE808h71g", "alias": "darbar-grill-new-york", "name": "Darbar Grill", "image_url": "https://s3-media1.fl.yelpcdn.com/bphoto/S24KKMMKGD86-A9mzsQbUQ/o.jpg", "is_closed": false, "url": "https://www.yelp.com/biz/darbar-grill-new-york?adjust_creative=uVENxkrx5WKqWp2fTdTrzg&utm_campaign=yelp_api_v3&utm_medium=api_v3_business_search&utm_source=uVENxkrx5WKqWp2fTdTrzg", "review_count": 594, "categories": [{"alias": "indpak", "title": "Indian"}, {"alias": "wine_bars", "title": "Wine Bars"}, {"alias": "catering", "title": "Caterers"}], "rating": 3.9, "coordinates": {"latitude": 40.759357, "longitude": -73.968826}, "transactions": ["pickup", "restaurant_reservation", "delivery"], "price": "$$", "location": {"address1": "157 E 55th St", "address2": "", "address3": "", "city": "New York", "zip_code": "10022", "country": "US", "state": "NY", "display_address": ["157 E 55th St", "New York, NY 10022"]}, "phone": "+12127514600", "display_phone": "(212) 751-4600", "distance": 820.3876268523629}, {"id": "JSX6Pk56w4BhgO8eSvCrKg", "alias": "aroqa-new-york", "name": "aRoqa", "image_url": "https://s3-media1.fl.yelpcdn.com/bphoto/VSx5w9dlSIwIgruaHwxJ4w/o.jpg", "is_closed": false, "url": "https://www.yelp.com/biz/aroqa-new-york?adjust_creative=uVENxkrx5WKqWp2fTdTrzg&utm_campaign=yelp_api_v3&utm_medium=api_v3_business_search&utm_source=uVENxkrx5WKqWp2fTdTrzg", "review_count": 409, "categories": [{"alias": "indpak", "title": "Indian"}, {"alias": "bars", "title": "Bars"}, {"alias": "tapasmallplates", "title": "Tapas/Small Plates"}], "rating": 4.1, "coordinates": {"latitude": 40.746065, "longitude": -74.001254}, "transactions": ["pickup", "delivery"], "price": "$$", "location": {"address1": "206 9th Ave", "address2": null, "address3": "", "city": "New York", "zip_code": "10011", "country": "US", "state": "NY", "display_address": ["206 9th Ave", "New York, NY 10011"]}, "phone": "+16466785471", "display_phone": "(646) 678-5471", "distance": 2479.7148121306127}, {"id": "tN37MOvqzrmpU0h0PfoDmw", "alias": "utsav-new-york-3", "name": "Utsav", "image_url": "https://s3-media3.fl.yelpcdn.com/bphoto/23o50wNr5t0oWrcSwqFAuA/o.jpg", "is_closed": false, "url": "https://www.yelp.com/biz/utsav-new-york-3?adjust_creative=uVENxkrx5WKqWp2fTdTrzg&utm_campaign=yelp_api_v3&utm_medium=api_v3_business_search&utm_source=uVENxkrx5WKqWp2fTdTrzg", "review_count": 664, "categories": [{"alias": "indpak", "title": "Indian"}, {"alias": "cocktailbars", "title": "Cocktail Bars"}], "rating": 3.5, "coordinates": {"latitude": 40.75791, "longitude": -73.9825}, "transactions": ["pickup", "restaurant_reservation", "delivery"], "price": "$$", "location": {"address1": "1185 Avenue Of The Americas Plz", "address2": null, "address3": "", "city": "New York", "zip_code": "10036", "country": "US", "state": "NY", "display_address": ["1185 Avenue Of The Americas Plz", "New York, NY 10036"]}, "phone": "+12125752525", "display_phone": "(212) 575-2525", "distance": 406.32529264239014}, {"id": "zVLG_O3AQnvQ53PSJ5mTMA", "alias": "om-new-york", "name": "Om", "image_url": "https://s3-media3.fl.yelpcdn.com/bphoto/CRsQCJa3J7JFQ5dCdeS2LQ/o.jpg", "is_closed": false, "url": "https://www.yelp.com/biz/om-new-york?adjust_creative=uVENxkrx5WKqWp2fTdTrzg&utm_campaign=yelp_api_v3&utm_medium=api_v3_business_search&utm_source=uVENxkrx5WKqWp2fTdTrzg", "review_count": 550, "categories": [{"alias": "indpak", "title": "Indian"}], "rating": 3.9, "coordinates": {"latitude": 40.7726799, "longitude": -73.9497983}, "transactions": ["pickup", "delivery"], "price": "$$", "location": {"address1": "1531 York Ave", "address2": null, "address3": "", "city": "New York", "zip_code": "10028", "country": "US", "state": "NY", "display_address": ["1531 York Ave", "New York, NY 10028"]}, "phone": "+12126284500", "display_phone": "(212) 628-4500", "distance": 2786.3777790608146}, {"id": "ECUTH1VOWxZ9GwfzblMKzA", "alias": "mughlai-indian-cuisine-new-york-8", "name": "Mughlai Indian Cuisine", "image_url": "https://s3-media3.fl.yelpcdn.com/bphoto/ACFsnia5tvgQbupV2RFnPw/o.jpg", "is_closed": false, "url": "https://www.yelp.com/biz/mughlai-indian-cuisine-new-york-8?adjust_creative=uVENxkrx5WKqWp2fTdTrzg&utm_campaign=yelp_api_v3&utm_medium=api_v3_business_search&utm_source=uVENxkrx5WKqWp2fTdTrzg", "review_count": 183, "categories": [{"alias": "indpak", "title": "Indian"}], "rating": 4.4, "coordinates": {"latitude": 40.765394, "longitude": -73.983272}, "transactions": ["pickup", "delivery"], "price": "$$", "location": {"address1": "255 W 55th St", "address2": null, "address3": "", "city": "New York", "zip_code": "10019", "country": "US", "state": "NY", "display_address": ["255 W 55th St", "New York, NY 10019"]}, "phone": "+16468700555", "display_phone": "(646) 870-0555", "distance": 700.4355602089759}, {"id": "Y2I946V78wOdwaUD9chmqg", "alias": "roti-roll-bombay-frankie-new-york", "name": "Roti Roll Bombay Frankie", "image_url": "https://s3-media2.fl.yelpcdn.com/bphoto/yynjNstMaOWDTOvXdpRiFQ/o.jpg", "is_closed": false, "url": "https://www.yelp.com/biz/roti-roll-bombay-frankie-new-york?adjust_creative=uVENxkrx5WKqWp2fTdTrzg&utm_campaign=yelp_api_v3&utm_medium=api_v3_business_search&utm_source=uVENxkrx5WKqWp2fTdTrzg", "review_count": 432, "categories": [{"alias": "indpak", "title": "Indian"}], "rating": 4.0, "coordinates": {"latitude": 40.8026, "longitude": -73.96437}, "transactions": ["pickup", "delivery"], "price": "$", "location": {"address1": "994 Amsterdam Ave", "address2": "", "address3": "", "city": "New York", "zip_code": "10025", "country": "US", "state": "NY", "display_address": ["994 Amsterdam Ave", "New York, NY 10025"]}, "phone": "+12126661500", "display_phone": "(212) 666-1500", "distance": 4861.080079253645}, {"id": "iLjrQvbUYPj6NLkalyau0w", "alias": "hyderabadi-zaiqa-new-york", "name": "Hyderabadi Zaiqa", "image_url": "https://s3-media3.fl.yelpcdn.com/bphoto/-pTRBtaU0brMKqoLdye-mw/o.jpg", "is_closed": false, "url": "https://www.yelp.com/biz/hyderabadi-zaiqa-new-york?adjust_creative=uVENxkrx5WKqWp2fTdTrzg&utm_campaign=yelp_api_v3&utm_medium=api_v3_business_search&utm_source=uVENxkrx5WKqWp2fTdTrzg", "review_count": 48, "categories": [{"alias": "desserts", "title": "Desserts"}, {"alias": "juicebars", "title": "Juice Bars & Smoothies"}, {"alias": "indpak", "title": "Indian"}], "rating": 4.8, "coordinates": {"latitude": 40.76439568665357, "longitude": -73.9876243}, "transactions": ["pickup", "delivery"], "location": {"address1": "366 W 52 St", "address2": "", "address3": "", "city": "New York", "zip_code": "10019", "country": "US", "state": "NY", "display_address": ["366 W 52 St", "New York, NY 10019"]}, "phone": "+16469520066", "display_phone": "(646) 952-0066", "distance": 898.1110805548673}, {"id": "7USPKYeaAfxl0Ch9j_1l7A", "alias": "moti-mahal-delux-new-york", "name": "Moti Mahal Delux", "image_url": "https://s3-media1.fl.yelpcdn.com/bphoto/AXSKhFwc0WSuGsON2ZYQxw/o.jpg", "is_closed": false, "url": "https://www.yelp.com/biz/moti-mahal-delux-new-york?adjust_creative=uVENxkrx5WKqWp2fTdTrzg&utm_campaign=yelp_api_v3&utm_medium=api_v3_business_search&utm_source=uVENxkrx5WKqWp2fTdTrzg", "review_count": 571, "categories": [{"alias": "indpak", "title": "Indian"}], "rating": 3.8, "coordinates": {"latitude": 40.76213, "longitude": -73.9605}, "transactions": ["pickup", "delivery"], "price": "$$", "location": {"address1": "1149 1st Ave", "address2": null, "address3": "", "city": "New York", "zip_code": "10065", "country": "US", "state": "NY", "display_address": ["1149 1st Ave", "New York, NY 10065"]}, "phone": "+12123713535", "display_phone": "(212) 371-3535", "distance": 1540.1475406093275}, {"id": "3kuaJMPOeTP1O1CK2fyOsA", "alias": "dadi-ma-home-style-indian-cooking-new-york-2", "name": "Dadi Ma Home Style Indian Cooking", "image_url": "https://s3-media3.fl.yelpcdn.com/bphoto/9GQvkKHioN1qNa82I9fG8w/o.jpg", "is_closed": false, "url": "https://www.yelp.com/biz/dadi-ma-home-style-indian-cooking-new-york-2?adjust_creative=uVENxkrx5WKqWp2fTdTrzg&utm_campaign=yelp_api_v3&utm_medium=api_v3_business_search&utm_source=uVENxkrx5WKqWp2fTdTrzg", "review_count": 17, "categories": [{"alias": "indpak", "title": "Indian"}, {"alias": "seafood", "title": "Seafood"}], "rating": 5.0, "coordinates": {"latitude": 40.75557266682884, "longitude": -73.9687464}, "transactions": ["pickup", "delivery"], "location": {"address1": "246 E 51st", "address2": "Store 1", "address3": "", "city": "New York", "zip_code": "10022", "country": "US", "state": "NY", "display_address": ["246 E 51st", "Store 1", "New York, NY 10022"]}, "phone": "+12124191740", "display_phone": "(212) 419-1740", "distance": 970.2578219180012}, {"id": "BPyt7S9TdcR1u571iacg7g", "alias": "the-kati-roll-company-new-york-5", "name": "The Kati Roll Company", "image_url": "https://s3-media3.fl.yelpcdn.com/bphoto/3GBLdxJrluxpFaTjL792sg/o.jpg", "is_closed": false, "url": "https://www.yelp.com/biz/the-kati-roll-company-new-york-5?adjust_creative=uVENxkrx5WKqWp2fTdTrzg&utm_campaign=yelp_api_v3&utm_medium=api_v3_business_search&utm_source=uVENxkrx5WKqWp2fTdTrzg", "review_count": 1685, "categories": [{"alias": "indpak", "title": "Indian"}, {"alias": "halal", "title": "Halal"}], "rating": 3.7, "coordinates": {"latitude": 40.752819, "longitude": -73.984587}, "transactions": ["pickup", "delivery"], "price": "$", "location": {"address1": "49 W 39th St", "address2": null, "address3": "", "city": "New York", "zip_code": "10018", "country": "US", "state": "NY", "display_address": ["49 W 39th St", "New York, NY 10018"]}, "phone": "+12127304280", "display_phone": "(212) 730-4280", "distance": 969.0985315297057}, {"id": "SP4bvMvxel_UPdof_er3HA", "alias": "taco-mahal-new-york", "name": "Taco Mahal", "image_url": "https://s3-media2.fl.yelpcdn.com/bphoto/wo7f5lvsgtQ5fOeWw6z83A/o.jpg", "is_closed": false, "url": "https://www.yelp.com/biz/taco-mahal-new-york?adjust_creative=uVENxkrx5WKqWp2fTdTrzg&utm_campaign=yelp_api_v3&utm_medium=api_v3_business_search&utm_source=uVENxkrx5WKqWp2fTdTrzg", "review_count": 879, "categories": [{"alias": "indpak", "title": "Indian"}, {"alias": "tacos", "title": "Tacos"}, {"alias": "latin", "title": "Latin American"}], "rating": 4.4, "coordinates": {"latitude": 40.73235768476899, "longitude": -74.00332645767203}, "transactions": ["pickup", "delivery"], "price": "$$", "location": {"address1": "73 7th Ave S", "address2": "", "address3": null, "city": "New York", "zip_code": "10014", "country": "US", "state": "NY", "display_address": ["73 7th Ave S", "New York, NY 10014"]}, "phone": "+16467191553", "display_phone": "(646) 719-1553", "distance": 3737.5052587881264}, {"id": "u_CnSp9FieAuWqhvCn-A2A", "alias": "spice-mantra-new-york", "name": "Spice Mantra", "image_url": "https://s3-media2.fl.yelpcdn.com/bphoto/2DfwvwTkDnlAdq-bKKiokg/o.jpg", "is_closed": false, "url": "https://www.yelp.com/biz/spice-mantra-new-york?adjust_creative=uVENxkrx5WKqWp2fTdTrzg&utm_campaign=yelp_api_v3&utm_medium=api_v3_business_search&utm_source=uVENxkrx5WKqWp2fTdTrzg", "review_count": 87, "categories": [{"alias": "indpak", "title": "Indian"}], "rating": 4.7, "coordinates": {"latitude": 40.75825, "longitude": -73.96633}, "transactions": ["pickup", "delivery"], "location": {"address1": "1047 2nd Ave", "address2": null, "address3": "", "city": "New York", "zip_code": "10022", "country": "US", "state": "NY", "display_address": ["1047 2nd Ave", "New York, NY 10022"]}, "phone": "+12125729900", "display_phone": "(212) 572-9900", "distance": 1041.7046964337137}, {"id": "26RvDcDKxe3wZkAAJ4rALg", "alias": "inday-new-york-10", "name": "Inday", "image_url": "https://s3-media1.fl.yelpcdn.com/bphoto/S2OWA_gIni5_YKxg9mKLrA/o.jpg", "is_closed": false, "url": "https://www.yelp.com/biz/inday-new-york-10?adjust_creative=uVENxkrx5WKqWp2fTdTrzg&utm_campaign=yelp_api_v3&utm_medium=api_v3_business_search&utm_source=uVENxkrx5WKqWp2fTdTrzg", "review_count": 3, "categories": [{"alias": "indpak", "title": "Indian"}, {"alias": "salad", "title": "Salad"}, {"alias": "gluten_free", "title": "Gluten-Free"}], "rating": 4.7, "coordinates": {"latitude": 40.75855165200155, "longitude": -73.97111614118108}, "transactions": [], "location": {"address1": "630 Lexington Ave", "address2": "", "address3": null, "city": "New York", "zip_code": "10022", "country": "US", "state": "NY", "display_address": ["630 Lexington Ave", "New York, NY 10022"]}, "phone": "", "display_phone": "", "distance": 648.8554834425024}]