[{"id": "klAhw3xLQi9GF1tf_HnS7w", "alias": "izakaya-mew-new-york-3", "name": "Izakaya MEW", "image_url": "https://s3-media4.fl.yelpcdn.com/bphoto/-56mpvzUi0nfYADw2uQXhg/o.jpg", "is_closed": false, "url": "https://www.yelp.com/biz/izakaya-mew-new-york-3?adjust_creative=uVENxkrx5WKqWp2fTdTrzg&utm_campaign=yelp_api_v3&utm_medium=api_v3_business_search&utm_source=uVENxkrx5WKqWp2fTdTrzg", "review_count": 2951, "categories": [{"alias": "tapas", "title": "Tapas Bars"}, {"alias": "sushi", "title": "Sushi Bars"}, {"alias": "izakaya", "title": "Izakaya"}], "rating": 4.3, "coordinates": {"latitude": 40.750148, "longitude": -73.9863203465939}, "transactions": ["pickup", "delivery"], "price": "$$", "location": {"address1": "53 W 35th St", "address2": "", "address3": "", "city": "New York", "zip_code": "10001", "country": "US", "state": "NY", "display_address": ["53 W 35th St", "New York, NY 10001"]}, "phone": "+16463689384", "display_phone": "(646) 368-9384", "distance": 1298.8043169184014}, {"id": "v8y7NLCC25KY_lSbcs3UPA", "alias": "maison-kintaro-new-york-2", "name": "Maison Kintaro", "image_url": "https://s3-media2.fl.yelpcdn.com/bphoto/_tlO87o5rwgt-eS-kgTCCQ/o.jpg", "is_closed": false, "url": "https://www.yelp.com/biz/maison-kintaro-new-york-2?adjust_creative=uVENxkrx5WKqWp2fTdTrzg&utm_campaign=yelp_api_v3&utm_medium=api_v3_business_search&utm_source=uVENxkrx5WKqWp2fTdTrzg", "review_count": 95, "categories": [{"alias": "japanese", "title": "Japanese"}], "rating": 4.4, "coordinates": {"latitude": 40.747442163550275, "longitude": -74.00123431589748}, "transactions": ["pickup", "delivery"], "location": {"address1": "401 W 24th St", "address2": null, "address3": null, "city": "New York", "zip_code": "10011", "country": "US", "state": "NY", "display_address": ["401 W 24th St", "New York, NY 10011"]}, "phone": "+13152304533", "display_phone": "(315) 230-4533", "distance": 2384.140782302289}, {"id": "n7hfvvUtzeaLwKCGVegALQ", "alias": "konban-new-york", "name": "Konban", "image_url": "https://s3-media3.fl.yelpcdn.com/bphoto/VQfv5t48krAlCZwQLRYk3Q/o.jpg", "is_closed": false, "url": "https://www.yelp.com/biz/konban-new-york?adjust_creative=uVENxkrx5WKqWp2fTdTrzg&utm_campaign=yelp_api_v3&utm_medium=api_v3_business_search&utm_source=uVENxkrx5WKqWp2fTdTrzg", "review_count": 76, "categories": [{"alias": "izakaya", "title": "Izakaya"}], "rating": 4.4, "coordinates": {"latitude": 40.741979, "longitude": -74.001592}, "transactions": [], "location": {"address1": "311 W 17th St", "address2": "", "address3": null, "city": "New York", "zip_code": "10011", "country": "US", "state": "NY", "display_address": ["311 W 17th St", "New York, NY 10011"]}, "phone": "+19176756070", "display_phone": "(917) 675-6070", "distance": 2805.4603590726133}, {"id": "FlZ1zdVEKWv7dwqm8Uw8-w", "alias": "raku-new-york-7", "name": "Raku", "image_url": "https://s3-media4.fl.yelpcdn.com/bphoto/GEbZnH1jR4n7D5WOJ3urPg/o.jpg", "is_closed": false, "url": "https://www.yelp.com/biz/raku-new-york-7?adjust_creative=uVENxkrx5WKqWp2fTdTrzg&utm_campaign=yelp_api_v3&utm_medium=api_v3_business_search&utm_source=uVENxkrx5WKqWp2fTdTrzg", "review_count": 1633, "categories": [{"alias": "japanese", "title": "Japanese"}, {"alias": "noodles", "title": "Noodles"}], "rating": 4.5, "coordinates": {"latitude": 40.7264988089246, "longitude": -73.9866526052356}, "transactions": ["pickup", "delivery"], "price": "$$", "location": {"address1": "342 E 6th St", "address2": "", "address3": "", "city": "New York", "zip_code": "10003", "country": "US", "state": "NY", "display_address": ["342 E 6th St", "New York, NY 10003"]}, "phone": "+12122281324", "display_phone": "(212) 228-1324", "distance": 3811.4430027214194}, {"id": "axqp3pGJXnTLgq2QrPyDyQ", "alias": "benemon-new-york", "name": "Benemon", "image_url": "https://s3-media3.fl.yelpcdn.com/bphoto/5ZRHsFgkyoSzac8ofvhvvg/o.jpg", "is_closed": false, "url": "https://www.yelp.com/biz/benemon-new-york?adjust_creative=uVENxkrx5WKqWp2fTdTrzg&utm_campaign=yelp_api_v3&utm_medium=api_v3_business_search&utm_source=uVENxkrx5WKqWp2fTdTrzg", "review_count": 724, "categories": [{"alias": "japanese", "title": "Japanese"}, {"alias": "tapasmallplates", "title": "Tapas/Small Plates"}, {"alias": "cocktailbars", "title": "Cocktail Bars"}], "rating": 4.3, "coordinates": {"latitude": 40.72551, "longitude": -73.98838}, "transactions": ["pickup", "delivery"], "price": "$$", "location": {"address1": "108 E 4th St", "address2": null, "address3": "", "city": "New York", "zip_code": "10003", "country": "US", "state": "NY", "display_address": ["108 E 4th St", "New York, NY 10003"]}, "phone": "+12126143006", "display_phone": "(212) 614-3006", "distance": 3944.676983069744}, {"id": "cT48RskMO_o35Ua0tlifyQ", "alias": "heno-heno-new-york-2", "name": "Heno Heno", "image_url": "https://s3-media2.fl.yelpcdn.com/bphoto/Mbj3ohufWkWmMIRfejctuw/o.jpg", "is_closed": false, "url": "https://www.yelp.com/biz/heno-heno-new-york-2?adjust_creative=uVENxkrx5WKqWp2fTdTrzg&utm_campaign=yelp_api_v3&utm_medium=api_v3_business_search&utm_source=uVENxkrx5WKqWp2fTdTrzg", "review_count": 152, "categories": [{"alias": "izakaya", "title": "Izakaya"}, {"alias": "sushi", "title": "Sushi Bars"}, {"alias": "bars", "title": "Bars"}], "rating": 4.3, "coordinates": {"latitude": 40.760512, "longitude": -73.990117}, "transactions": ["restaurant_reservation", "delivery", "pickup"], "location": {"address1": "358 W 46th St", "address2": null, "address3": "", "city": "New York", "zip_code": "10036", "country": "US", "state": "NY", "display_address": ["358 W 46th St", "New York, NY 10036"]}, "phone": "+16463988008", "display_phone": "(646) 398-8008", "distance": 978.5418396174578}, {"id": "diz6_4TVSP6EdWEZCZ0Acg", "alias": "kaoru-new-york", "name": "Kaoru", "image_url": "https://s3-media3.fl.yelpcdn.com/bphoto/7Xv6nQwtb07E_Z-GgqOfUw/o.jpg", "is_closed": false, "url": "https://www.yelp.com/biz/kaoru-new-york?adjust_creative=uVENxkrx5WKqWp2fTdTrzg&utm_campaign=yelp_api_v3&utm_medium=api_v3_business_search&utm_source=uVENxkrx5WKqWp2fTdTrzg", "review_count": 492, "categories": [{"alias": "japanese", "title": "Japanese"}], "rating": 4.3, "coordinates": {"latitude": 40.75202, "longitude": -73.96977}, "transactions": ["pickup", "delivery"], "price": "$$", "location": {"address1": "306 E 46th St", "address2": "", "address3": "", "city": "New York", "zip_code": "10017", "country": "US", "state": "NY", "display_address": ["306 E 46th St", "New York, NY 10017"]}, "phone": "+12128670874", "display_phone": "(212) 867-0874", "distance": 1162.9544122492748}, {"id": "eQ4QUGvuHGBzsOrphsVc6A", "alias": "kimura-new-york", "name": "Kimura", "image_url": "https://s3-media3.fl.yelpcdn.com/bphoto/mljczn7werHwgQX7_cF-rA/o.jpg", "is_closed": false, "url": "https://www.yelp.com/biz/kimura-new-york?adjust_creative=uVENxkrx5WKqWp2fTdTrzg&utm_campaign=yelp_api_v3&utm_medium=api_v3_business_search&utm_source=uVENxkrx5WKqWp2fTdTrzg", "review_count": 423, "categories": [{"alias": "japanese", "title": "Japanese"}, {"alias": "hotpot", "title": "Hot Pot"}, {"alias": "sushi", "title": "Sushi Bars"}], "rating": 4.5, "coordinates": {"latitude": 40.72904325062745, "longitude": -73.9882174}, "transactions": ["pickup", "delivery"], "price": "$$$", "location": {"address1": "31 St Marks Pl", "address2": null, "address3": "", "city": "New York", "zip_code": "10003", "country": "US", "state": "NY", "display_address": ["31 St Marks Pl", "New York, NY 10003"]}, "phone": "+19179051864", "display_phone": "(917) 905-1864", "distance": 3561.480602390528}, {"id": "kwq1W0opBnOYKoUXWYyQ5g", "alias": "momokawa-new-york-2", "name": "Momokawa", "image_url": "https://s3-media1.fl.yelpcdn.com/bphoto/mUsu5V_8ScS16Ctojx7sQg/o.jpg", "is_closed": false, "url": "https://www.yelp.com/biz/momokawa-new-york-2?adjust_creative=uVENxkrx5WKqWp2fTdTrzg&utm_campaign=yelp_api_v3&utm_medium=api_v3_business_search&utm_source=uVENxkrx5WKqWp2fTdTrzg", "review_count": 248, "categories": [{"alias": "japanese", "title": "Japanese"}, {"alias": "sushi", "title": "Sushi Bars"}, {"alias": "hotpot", "title": "Hot Pot"}], "rating": 4.0, "coordinates": {"latitude": 40.77050540898544, "longitude": -73.95374991870455}, "transactions": ["pickup", "delivery"], "price": "$$$", "location": {"address1": "1466 E 1st Ave", "address2": "", "address3": null, "city": "New York", "zip_code": "10075", "country": "US", "state": "NY", "display_address": ["1466 E 1st Ave", "New York, NY 10075"]}, "phone": "+12122560403", "display_phone": "(212) 256-0403", "distance": 2377.8460357935546}, {"id": "7iY35991NhQ1AShJZCNZgA", "alias": "sakagura-new-york", "name": "Sakagura", "image_url": "https://s3-media4.fl.yelpcdn.com/bphoto/UTNso2U3VAiTXdDV98Jbzw/o.jpg", "is_closed": false, "url": "https://www.yelp.com/biz/sakagura-new-york?adjust_creative=uVENxkrx5WKqWp2fTdTrzg&utm_campaign=yelp_api_v3&utm_medium=api_v3_business_search&utm_source=uVENxkrx5WKqWp2fTdTrzg", "review_count": 1888, "categories": [{"alias": "japanese", "title": "Japanese"}], "rating": 4.2, "coordinates": {"latitude": 40.7516467024541, "longitude": -73.9729489318165}, "transactions": ["delivery"], "price": "$$$$", "location": {"address1": "211 E 43rd St", "address2": "", "address3": "", "city": "New York", "zip_code": "10017", "country": "US", "state": "NY", "display_address": ["211 E 43rd St", "New York, NY 10017"]}, "phone": "+12129537253", "display_phone": "(212) 953-7253", "distance": 1061.3011139859577}, {"id": "YC-wGlO0oOkEIaCEDZv-ag", "alias": "yakitori-totto-new-york", "name": "Yakitori Totto", "image_url": "https://s3-media2.fl.yelpcdn.com/bphoto/z--vn2U2bjlg7Bls1DUB2g/o.jpg", "is_closed": false, "url": "https://www.yelp.com/biz/yakitori-totto-new-york?adjust_creative=uVENxkrx5WKqWp2fTdTrzg&utm_campaign=yelp_api_v3&utm_medium=api_v3_business_search&utm_source=uVENxkrx5WKqWp2fTdTrzg", "review_count": 1450, "categories": [{"alias": "japanese", "title": "Japanese"}], "rating": 4.0, "coordinates": {"latitude": 40.765375, "longitude": -73.983114}, "transactions": ["pickup", "delivery"], "price": "$$", "location": {"address1": "251 W 55th St", "address2": "Fl 2", "address3": "", "city": "New York", "zip_code": "10019", "country": "US", "state": "NY", "display_address": ["251 W 55th St", "Fl 2", "New York, NY 10019"]}, "phone": "+12122454555", "display_phone": "(212) 245-4555", "distance": 692.9652189141184}, {"id": "3QIFBLKp2Z9zA-PXlUEQlg", "alias": "okatte-tanto-ny-new-york", "name": "Okatte Tanto NY", "image_url": "https://s3-media4.fl.yelpcdn.com/bphoto/zMcbrSejic3cPb2yT6Rc4Q/o.jpg", "is_closed": false, "url": "https://www.yelp.com/biz/okatte-tanto-ny-new-york?adjust_creative=uVENxkrx5WKqWp2fTdTrzg&utm_campaign=yelp_api_v3&utm_medium=api_v3_business_search&utm_source=uVENxkrx5WKqWp2fTdTrzg", "review_count": 22, "categories": [{"alias": "japanese", "title": "Japanese"}], "rating": 4.6, "coordinates": {"latitude": 40.75455, "longitude": -73.96941}, "transactions": ["delivery"], "location": {"address1": "249 E 49th St", "address2": "", "address3": null, "city": "New York", "zip_code": "10017", "country": "US", "state": "NY", "display_address": ["249 E 49th St", "New York, NY 10017"]}, "phone": "+16469520364", "display_phone": "(646) 952-0364", "distance": 989.2835928571462}, {"id": "OFfZUS-nu6NDnsWe1B2bUQ", "alias": "tonchin-new-york-2", "name": "Tonchin", "image_url": "https://s3-media2.fl.yelpcdn.com/bphoto/BgQKNO97PzwQSsvmAKHIkA/o.jpg", "is_closed": false, "url": "https://www.yelp.com/biz/tonchin-new-york-2?adjust_creative=uVENxkrx5WKqWp2fTdTrzg&utm_campaign=yelp_api_v3&utm_medium=api_v3_business_search&utm_source=uVENxkrx5WKqWp2fTdTrzg", "review_count": 2095, "categories": [{"alias": "ramen", "title": "Ramen"}, {"alias": "cocktailbars", "title": "Cocktail Bars"}, {"alias": "chicken_wings", "title": "Chicken Wings"}], "rating": 4.4, "coordinates": {"latitude": 40.7502727, "longitude": -73.9844951}, "transactions": ["pickup", "delivery"], "price": "$$", "location": {"address1": "13 W 36th St", "address2": null, "address3": "", "city": "New York", "zip_code": "10018", "country": "US", "state": "NY", "display_address": ["13 W 36th St", "New York, NY 10018"]}, "phone": "+16466929912", "display_phone": "(646) 692-9912", "distance": 1215.3781230832326}, {"id": "5ZgCfc1_fotAKUp7n3YJkQ", "alias": "towa-new-york-3", "name": "Towa", "image_url": "https://s3-media4.fl.yelpcdn.com/bphoto/BOoLPUB53FHS6mS3yNl6yw/o.jpg", "is_closed": false, "url": "https://www.yelp.com/biz/towa-new-york-3?adjust_creative=uVENxkrx5WKqWp2fTdTrzg&utm_campaign=yelp_api_v3&utm_medium=api_v3_business_search&utm_source=uVENxkrx5WKqWp2fTdTrzg", "review_count": 108, "categories": [{"alias": "japanese", "title": "Japanese"}, {"alias": "sushi", "title": "Sushi Bars"}, {"alias": "cocktailbars", "title": "Cocktail Bars"}], "rating": 4.4, "coordinates": {"latitude": 40.7442, "longitude": -73.99062}, "transactions": [], "price": "$$$", "location": {"address1": "36 W 26th St", "address2": null, "address3": "", "city": "New York", "zip_code": "10010", "country": "US", "state": "NY", "display_address": ["36 W 26th St", "New York, NY 10010"]}, "phone": "+16463516258", "display_phone": "(646) 351-6258", "distance": 2048.370507661524}, {"id": "dUfKnUnwaYKciyoRzDBLEw", "alias": "izakaya-nana-flushing", "name": "Izakaya Nana", "image_url": "https://s3-media2.fl.yelpcdn.com/bphoto/uqKmQyRQa-r-MKw1Dip4kw/o.jpg", "is_closed": false, "url": "https://www.yelp.com/biz/izakaya-nana-flushing?adjust_creative=uVENxkrx5WKqWp2fTdTrzg&utm_campaign=yelp_api_v3&utm_medium=api_v3_business_search&utm_source=uVENxkrx5WKqWp2fTdTrzg", "review_count": 564, "categories": [{"alias": "izakaya", "title": "Izakaya"}], "rating": 4.4, "coordinates": {"latitude": 40.764116, "longitude": -73.824724}, "transactions": ["restaurant_reservation", "delivery", "pickup"], "price": "$$$", "location": {"address1": "141-26 Northern Blvd", "address2": null, "address3": "", "city": "Flushing", "zip_code": "11354", "country": "US", "state": "NY", "display_address": ["141-26 Northern Blvd", "Flushing, NY 11354"]}, "phone": "+17182696866", "display_phone": "(718) 269-6866", "distance": 12955.201528278525}, {"id": "xFp3xSQ43J-i7nmJfNBsZA", "alias": "norikoh-new-york-8", "name": "Norikoh", "image_url": "https://s3-media3.fl.yelpcdn.com/bphoto/DLT5-EvfTq5RNQgybYNDpg/o.jpg", "is_closed": false, "url": "https://www.yelp.com/biz/norikoh-new-york-8?adjust_creative=uVENxkrx5WKqWp2fTdTrzg&utm_campaign=yelp_api_v3&utm_medium=api_v3_business_search&utm_source=uVENxkrx5WKqWp2fTdTrzg", "review_count": 682, "categories": [{"alias": "sushi", "title": "Sushi Bars"}, {"alias": "japanese", "title": "Japanese"}], "rating": 3.8, "coordinates": {"latitude": 40.7433, "longitude": -73.99137}, "transactions": ["pickup", "delivery"], "price": "$$", "location": {"address1": "43 W 24th St", "address2": null, "address3": "", "city": "New York", "zip_code": "10010", "country": "US", "state": "NY", "display_address": ["43 W 24th St", "New York, NY 10010"]}, "phone": "+16469227383", "display_phone": "(646) 922-7383", "distance": 2170.3998406049573}, {"id": "O1XrvIq-6IlLunLYEjOiFQ", "alias": "kushi-kushi-yaki-new-york", "name": "Kushi Kushi Yaki", "image_url": "https://s3-media3.fl.yelpcdn.com/bphoto/pd1TjoRX1EOvs76Rg7c4BQ/o.jpg", "is_closed": false, "url": "https://www.yelp.com/biz/kushi-kushi-yaki-new-york?adjust_creative=uVENxkrx5WKqWp2fTdTrzg&utm_campaign=yelp_api_v3&utm_medium=api_v3_business_search&utm_source=uVENxkrx5WKqWp2fTdTrzg", "review_count": 168, "categories": [{"alias": "tapasmallplates", "title": "Tapas/Small Plates"}, {"alias": "izakaya", "title": "Izakaya"}, {"alias": "ramen", "title": "Ramen"}], "rating": 4.3, "coordinates": {"latitude": 40.747266, "longitude": -73.9861784}, "transactions": ["pickup", "delivery"], "price": "$$", "location": {"address1": "2 W 32nd St", "address2": null, "address3": "", "city": "New York", "zip_code": "10001", "country": "US", "state": "NY", "display_address": ["2 W 32nd St", "New York, NY 10001"]}, "phone": "+12122793075", "display_phone": "(212) 279-3075", "distance": 1578.4314049876064}, {"id": "f48yzy50jQDH7X5xFAluOw", "alias": "tsukimi-new-york", "name": "Tsukimi", "image_url": "https://s3-media3.fl.yelpcdn.com/bphoto/iw-3hXNcAQh98d7ZkknPSQ/o.jpg", "is_closed": false, "url": "https://www.yelp.com/biz/tsukimi-new-york?adjust_creative=uVENxkrx5WKqWp2fTdTrzg&utm_campaign=yelp_api_v3&utm_medium=api_v3_business_search&utm_source=uVENxkrx5WKqWp2fTdTrzg", "review_count": 67, "categories": [{"alias": "japanese", "title": "Japanese"}], "rating": 4.9, "coordinates": {"latitude": 40.72908, "longitude": -73.98541}, "transactions": ["pickup", "delivery"], "price": "$$$$", "location": {"address1": "228 East 10th St", "address2": null, "address3": "", "city": "New York", "zip_code": "10003", "country": "US", "state": "NY", "display_address": ["228 East 10th St", "New York, NY 10003"]}, "phone": "", "display_phone": "", "distance": 3516.9172325305967}, {"id": "GUOSYM9barqsuIxZ5jO-AQ", "alias": "tensai-new-york", "name": "Tensai", "image_url": "https://s3-media1.fl.yelpcdn.com/bphoto/ncoQ7am-5HfM5C-LVnl3cA/o.jpg", "is_closed": false, "url": "https://www.yelp.com/biz/tensai-new-york?adjust_creative=uVENxkrx5WKqWp2fTdTrzg&utm_campaign=yelp_api_v3&utm_medium=api_v3_business_search&utm_source=uVENxkrx5WKqWp2fTdTrzg", "review_count": 3, "categories": [{"alias": "japanese", "title": "Japanese"}], "rating": 5.0, "coordinates": {"latitude": 40.755871, "longitude": -73.969514}, "transactions": ["pickup", "delivery"], "location": {"address1": "222 E 51st St", "address2": "", "address3": null, "city": "New York", "zip_code": "10022", "country": "US", "state": "NY", "display_address": ["222 E 51st St", "New York, NY 10022"]}, "phone": "+12124666591", "display_phone": "(212) 466-6591", "distance": 898.4348516519461}, {"id": "_IkMfWpOkQXRZtJAYJUJIw", "alias": "hama-japanese-cuisine-new-york", "name": "Hama Japanese Cuisine", "image_url": "https://s3-media2.fl.yelpcdn.com/bphoto/3YnpzXHaeugtrc9XqHiF2g/o.jpg", "is_closed": false, "url": "https://www.yelp.com/biz/hama-japanese-cuisine-new-york?adjust_creative=uVENxkrx5WKqWp2fTdTrzg&utm_campaign=yelp_api_v3&utm_medium=api_v3_business_search&utm_source=uVENxkrx5WKqWp2fTdTrzg", "review_count": 438, "categories": [{"alias": "sushi", "title": "Sushi Bars"}, {"alias": "japanese", "title": "Japanese"}], "rating": 4.0, "coordinates": {"latitude": 40.7597846984863, "longitude": -73.9776382446289}, "transactions": ["restaurant_reservation", "delivery", "pickup"], "price": "$$", "location": {"address1": "11 W 51st St", "address2": "", "address3": "", "city": "New York", "zip_code": "10019", "country": "US", "state": "NY", "display_address": ["11 W 51st St", "New York, NY 10019"]}, "phone": "+12127577103", "display_phone": "(212) 757-7103", "distance": 86.89110493887978}, {"id": "HZWHBfeuP4Fb6y8b8uqnbA", "alias": "sushi-yasaka-new-york", "name": "Sushi Yasaka", "image_url": "https://s3-media4.fl.yelpcdn.com/bphoto/_AXYcM-4epAtPfuDjan4UA/o.jpg", "is_closed": false, "url": "https://www.yelp.com/biz/sushi-yasaka-new-york?adjust_creative=uVENxkrx5WKqWp2fTdTrzg&utm_campaign=yelp_api_v3&utm_medium=api_v3_business_search&utm_source=uVENxkrx5WKqWp2fTdTrzg", "review_count": 2047, "categories": [{"alias": "japanese", "title": "Japanese"}, {"alias": "sushi", "title": "Sushi Bars"}], "rating": 4.2, "coordinates": {"latitude": 40.779583, "longitude": -73.983482}, "transactions": ["pickup", "delivery"], "price": "$$", "location": {"address1": "251 W 72nd St", "address2": "", "address3": "", "city": "New York", "zip_code": "10023", "country": "US", "state": "NY", "display_address": ["251 W 72nd St", "New York, NY 10023"]}, "phone": "+12124968460", "display_phone": "(212) 496-8460", "distance": 2194.109769610794}, {"id": "qm1J_dPA5IHij1oAnoZwHw", "alias": "nonono-new-york-6", "name": "nonono", "image_url": "https://s3-media1.fl.yelpcdn.com/bphoto/TqFGBv0yqN6D4cneKOTTJA/o.jpg", "is_closed": false, "url": "https://www.yelp.com/biz/nonono-new-york-6?adjust_creative=uVENxkrx5WKqWp2fTdTrzg&utm_campaign=yelp_api_v3&utm_medium=api_v3_business_search&utm_source=uVENxkrx5WKqWp2fTdTrzg", "review_count": 1219, "categories": [{"alias": "izakaya", "title": "Izakaya"}, {"alias": "cocktailbars", "title": "Cocktail Bars"}], "rating": 4.2, "coordinates": {"latitude": 40.74541891599005, "longitude": -73.98492926795281}, "transactions": ["pickup", "delivery"], "price": "$$$", "location": {"address1": "118 Madison Ave", "address2": "", "address3": "", "city": "New York", "zip_code": "10016", "country": "US", "state": "NY", "display_address": ["118 Madison Ave", "New York, NY 10016"]}, "phone": "+16467073227", "display_phone": "(646) 707-3227", "distance": 1732.0687838771119}, {"id": "kN3rkbjvqkY62CDRYUVz4g", "alias": "yopparai-new-york", "name": "Yopparai", "image_url": "https://s3-media1.fl.yelpcdn.com/bphoto/-Dz8UMOELWlFJTjcXZQy6w/o.jpg", "is_closed": false, "url": "https://www.yelp.com/biz/yopparai-new-york?adjust_creative=uVENxkrx5WKqWp2fTdTrzg&utm_campaign=yelp_api_v3&utm_medium=api_v3_business_search&utm_source=uVENxkrx5WKqWp2fTdTrzg", "review_count": 267, "categories": [{"alias": "izakaya", "title": "Izakaya"}], "rating": 4.3, "coordinates": {"latitude": 40.71975013980203, "longitude": -73.98488557728082}, "transactions": ["pickup", "delivery"], "price": "$$$", "location": {"address1": "49 Clinton St", "address2": "Ground Floor", "address3": "", "city": "New York", "zip_code": "10002", "country": "US", "state": "NY", "display_address": ["49 Clinton St", "Ground Floor", "New York, NY 10002"]}, "phone": "+12127777253", "display_phone": "(212) 777-7253", "distance": 4531.516843309329}, {"id": "-dXDKEy3i1DurRFkNPQ5Qg", "alias": "sushiichi-new-york-2", "name": "Sushiichi", "image_url": "https://s3-media2.fl.yelpcdn.com/bphoto/CkRYp5AHh7k7bBEDe68Jvw/o.jpg", "is_closed": false, "url": "https://www.yelp.com/biz/sushiichi-new-york-2?adjust_creative=uVENxkrx5WKqWp2fTdTrzg&utm_campaign=yelp_api_v3&utm_medium=api_v3_business_search&utm_source=uVENxkrx5WKqWp2fTdTrzg", "review_count": 49, "categories": [{"alias": "sushi", "title": "Sushi Bars"}, {"alias": "japanese", "title": "Japanese"}, {"alias": "raw_food", "title": "Live/Raw Food"}], "rating": 4.8, "coordinates": {"latitude": 40.761644, "longitude": -73.993648}, "transactions": ["restaurant_reservation"], "location": {"address1": "640 10th Ave", "address2": null, "address3": "", "city": "New York", "zip_code": "10036", "country": "US", "state": "NY", "display_address": ["640 10th Ave", "New York, NY 10036"]}, "phone": "+12125861640", "display_phone": "(212) 586-1640", "distance": 1286.4395925019078}, {"id": "-J8VuX3wGrYSOBu2G0hMsw", "alias": "katsu-hama-new-york", "name": "Katsu-Hama", "image_url": "https://s3-media1.fl.yelpcdn.com/bphoto/wFec1CBslBdckPCSpriw0g/o.jpg", "is_closed": false, "url": "https://www.yelp.com/biz/katsu-hama-new-york?adjust_creative=uVENxkrx5WKqWp2fTdTrzg&utm_campaign=yelp_api_v3&utm_medium=api_v3_business_search&utm_source=uVENxkrx5WKqWp2fTdTrzg", "review_count": 1663, "categories": [{"alias": "japanese", "title": "Japanese"}], "rating": 4.0, "coordinates": {"latitude": 40.75638, "longitude": -73.97759}, "transactions": ["pickup", "delivery"], "price": "$$", "location": {"address1": "11 E 47th St", "address2": "", "address3": "", "city": "New York", "zip_code": "10017", "country": "US", "state": "NY", "display_address": ["11 E 47th St", "New York, NY 10017"]}, "phone": "+12127585909", "display_phone": "(212) 758-5909", "distance": 425.60730387740625}, {"id": "NRJq2BNcbjqAyxUB_bw7gw", "alias": "momoya-new-york", "name": "Momoya", "image_url": "https://s3-media1.fl.yelpcdn.com/bphoto/ff4nvXd0UTpc1GwNIqY_KQ/o.jpg", "is_closed": false, "url": "https://www.yelp.com/biz/momoya-new-york?adjust_creative=uVENxkrx5WKqWp2fTdTrzg&utm_campaign=yelp_api_v3&utm_medium=api_v3_business_search&utm_source=uVENxkrx5WKqWp2fTdTrzg", "review_count": 840, "categories": [{"alias": "sushi", "title": "Sushi Bars"}, {"alias": "japanese", "title": "Japanese"}, {"alias": "salad", "title": "Salad"}], "rating": 4.1, "coordinates": {"latitude": 40.7426255196333, "longitude": -73.9966481924057}, "transactions": ["delivery"], "price": "$$", "location": {"address1": "185 7th Ave", "address2": null, "address3": "", "city": "New York", "zip_code": "10011", "country": "US", "state": "NY", "display_address": ["185 7th Ave", "New York, NY 10011"]}, "phone": "+12129894466", "display_phone": "(212) 989-4466", "distance": 2475.6414268096987}, {"id": "zHsK9YUH3lv8VlQEAPw6gA", "alias": "tabata-new-york-4", "name": "Tabata", "image_url": "https://s3-media1.fl.yelpcdn.com/bphoto/FMvh6-QtKOwaQaGLUMovMg/o.jpg", "is_closed": false, "url": "https://www.yelp.com/biz/tabata-new-york-4?adjust_creative=uVENxkrx5WKqWp2fTdTrzg&utm_campaign=yelp_api_v3&utm_medium=api_v3_business_search&utm_source=uVENxkrx5WKqWp2fTdTrzg", "review_count": 39, "categories": [{"alias": "japanese", "title": "Japanese"}, {"alias": "bars", "title": "Bars"}], "rating": 4.6, "coordinates": {"latitude": 40.770684, "longitude": -73.957302}, "transactions": ["pickup", "delivery"], "location": {"address1": "1435 2nd Ave", "address2": null, "address3": "", "city": "New York", "zip_code": "10021", "country": "US", "state": "NY", "display_address": ["1435 2nd Ave", "New York, NY 10021"]}, "phone": "+16468337977", "display_phone": "(646) 833-7977", "distance": 2130.015836418163}, {"id": "5llQecdr7h5XY2tNu405pg", "alias": "mikado-new-york-4", "name": "MIkado", "image_url": "https://s3-media2.fl.yelpcdn.com/bphoto/vzhxVZQoyPmqv0o_0l9Vvw/o.jpg", "is_closed": false, "url": "https://www.yelp.com/biz/mikado-new-york-4?adjust_creative=uVENxkrx5WKqWp2fTdTrzg&utm_campaign=yelp_api_v3&utm_medium=api_v3_business_search&utm_source=uVENxkrx5WKqWp2fTdTrzg", "review_count": 24, "categories": [{"alias": "sushi", "title": "Sushi Bars"}, {"alias": "japanese", "title": "Japanese"}], "rating": 4.3, "coordinates": {"latitude": 40.73794032945504, "longitude": -73.99744418855835}, "transactions": ["pickup", "delivery"], "location": {"address1": "109 W 14th St", "address2": null, "address3": "", "city": "New York", "zip_code": "10011", "country": "US", "state": "NY", "display_address": ["109 W 14th St", "New York, NY 10011"]}, "phone": "+12122559981", "display_phone": "(212) 255-9981", "distance": 2946.3873195785673}, {"id": "OLSSJIp8pu5UlugTF7tuHA", "alias": "ootoya-chelsea-new-york", "name": "Ootoya Chelsea", "image_url": "https://s3-media3.fl.yelpcdn.com/bphoto/bBYOWD2DUwWaML3ADlcZ9Q/o.jpg", "is_closed": false, "url": "https://www.yelp.com/biz/ootoya-chelsea-new-york?adjust_creative=uVENxkrx5WKqWp2fTdTrzg&utm_campaign=yelp_api_v3&utm_medium=api_v3_business_search&utm_source=uVENxkrx5WKqWp2fTdTrzg", "review_count": 1555, "categories": [{"alias": "sushi", "title": "Sushi Bars"}, {"alias": "hotpot", "title": "Hot Pot"}, {"alias": "japacurry", "title": "Japanese Curry"}], "rating": 4.1, "coordinates": {"latitude": 40.73881, "longitude": -73.99279}, "transactions": ["pickup", "restaurant_reservation", "delivery"], "price": "$$", "location": {"address1": "8 W 18th St", "address2": "", "address3": "", "city": "New York", "zip_code": "10011", "country": "US", "state": "NY", "display_address": ["8 W 18th St", "New York, NY 10011"]}, "phone": "+12122550018", "display_phone": "(212) 255-0018", "distance": 2665.7334170720537}, {"id": "wjIyCBEpCG_HRp8veiI0YQ", "alias": "ootoya-times-square-new-york-2", "name": "Ootoya Times Square", "image_url": "https://s3-media2.fl.yelpcdn.com/bphoto/H1W2pp2PiUJU4ZDKIA6-ew/o.jpg", "is_closed": false, "url": "https://www.yelp.com/biz/ootoya-times-square-new-york-2?adjust_creative=uVENxkrx5WKqWp2fTdTrzg&utm_campaign=yelp_api_v3&utm_medium=api_v3_business_search&utm_source=uVENxkrx5WKqWp2fTdTrzg", "review_count": 1135, "categories": [{"alias": "sushi", "title": "Sushi Bars"}, {"alias": "hotpot", "title": "Hot Pot"}, {"alias": "japacurry", "title": "Japanese Curry"}], "rating": 4.0, "coordinates": {"latitude": 40.754924, "longitude": -73.985945}, "transactions": ["pickup", "delivery"], "price": "$$", "location": {"address1": "141 W 41st St", "address2": "", "address3": "", "city": "New York", "zip_code": "10036", "country": "US", "state": "NY", "display_address": ["141 W 41st St", "New York, NY 10036"]}, "phone": "+12127040833", "display_phone": "(212) 704-0833", "distance": 861.1936095685786}, {"id": "XfOCJ841dL9fPBY_BAyayA", "alias": "soboku-brooklyn", "name": "SOBOKU", "image_url": "https://s3-media3.fl.yelpcdn.com/bphoto/QVgGkxMPo_UHRYxJAG3trg/o.jpg", "is_closed": false, "url": "https://www.yelp.com/biz/soboku-brooklyn?adjust_creative=uVENxkrx5WKqWp2fTdTrzg&utm_campaign=yelp_api_v3&utm_medium=api_v3_business_search&utm_source=uVENxkrx5WKqWp2fTdTrzg", "review_count": 58, "categories": [{"alias": "japanese", "title": "Japanese"}], "rating": 4.7, "coordinates": {"latitude": 40.682529, "longitude": -73.99346}, "transactions": ["pickup", "delivery"], "location": {"address1": "276 Smith St", "address2": null, "address3": "", "city": "Brooklyn", "zip_code": "11231", "country": "US", "state": "NY", "display_address": ["276 Smith St", "Brooklyn, NY 11231"]}, "phone": "+19179090328", "display_phone": "(917) 909-0328", "distance": 8727.789858404223}, {"id": "i8ejDDR4COtukAAA1Ls5fw", "alias": "soba-ya-new-york", "name": "Soba-ya", "image_url": "https://s3-media3.fl.yelpcdn.com/bphoto/tRp07xFhPFLZ324K3WiZlQ/o.jpg", "is_closed": false, "url": "https://www.yelp.com/biz/soba-ya-new-york?adjust_creative=uVENxkrx5WKqWp2fTdTrzg&utm_campaign=yelp_api_v3&utm_medium=api_v3_business_search&utm_source=uVENxkrx5WKqWp2fTdTrzg", "review_count": 1574, "categories": [{"alias": "japanese", "title": "Japanese"}, {"alias": "noodles", "title": "Noodles"}], "rating": 3.8, "coordinates": {"latitude": 40.72965, "longitude": -73.9878899}, "transactions": ["pickup", "delivery"], "price": "$$", "location": {"address1": "229 E 9th St", "address2": "", "address3": "", "city": "New York", "zip_code": "10003", "country": "US", "state": "NY", "display_address": ["229 E 9th St", "New York, NY 10003"]}, "phone": "+12125336966", "display_phone": "(212) 533-6966", "distance": 3490.091897782256}, {"id": "l_RAv09V67j-Hm9dyZxWhw", "alias": "tomi-jazz-new-york", "name": "Tomi Jazz", "image_url": "https://s3-media1.fl.yelpcdn.com/bphoto/OucmfJHT9EDdo0Wnwv7RaQ/o.jpg", "is_closed": false, "url": "https://www.yelp.com/biz/tomi-jazz-new-york?adjust_creative=uVENxkrx5WKqWp2fTdTrzg&utm_campaign=yelp_api_v3&utm_medium=api_v3_business_search&utm_source=uVENxkrx5WKqWp2fTdTrzg", "review_count": 800, "categories": [{"alias": "japanese", "title": "Japanese"}, {"alias": "jazzandblues", "title": "Jazz & Blues"}], "rating": 4.4, "coordinates": {"latitude": 40.75725, "longitude": -73.96774}, "transactions": ["pickup", "delivery"], "price": "$$", "location": {"address1": "239 E 53rd St", "address2": null, "address3": "", "city": "New York", "zip_code": "10022", "country": "US", "state": "NY", "display_address": ["239 E 53rd St", "New York, NY 10022"]}, "phone": "+16464971254", "display_phone": "(646) 497-1254", "distance": 962.9925467318975}, {"id": "7rxg-tWPc1jK7Cikn5R86g", "alias": "hi-collar-new-york-2", "name": "Hi-Collar", "image_url": "https://s3-media1.fl.yelpcdn.com/bphoto/zAi8_rPGpdGc0V75NE1BSw/o.jpg", "is_closed": false, "url": "https://www.yelp.com/biz/hi-collar-new-york-2?adjust_creative=uVENxkrx5WKqWp2fTdTrzg&utm_campaign=yelp_api_v3&utm_medium=api_v3_business_search&utm_source=uVENxkrx5WKqWp2fTdTrzg", "review_count": 838, "categories": [{"alias": "japanese", "title": "Japanese"}, {"alias": "coffee", "title": "Coffee & Tea"}, {"alias": "bars", "title": "Bars"}], "rating": 4.0, "coordinates": {"latitude": 40.729564, "longitude": -73.98786}, "transactions": ["pickup", "delivery"], "price": "$$", "location": {"address1": "231 E 9th St", "address2": "", "address3": "", "city": "New York", "zip_code": "10003", "country": "US", "state": "NY", "display_address": ["231 E 9th St", "New York, NY 10003"]}, "phone": "+12127777018", "display_phone": "(212) 777-7018", "distance": 3498.241677612774}, {"id": "VzstANC68PM1BbyOcDXEtw", "alias": "donburiya-new-york-2", "name": "Donburiya", "image_url": "https://s3-media1.fl.yelpcdn.com/bphoto/iE66wlw2f3QrK2oybK2tIA/o.jpg", "is_closed": false, "url": "https://www.yelp.com/biz/donburiya-new-york-2?adjust_creative=uVENxkrx5WKqWp2fTdTrzg&utm_campaign=yelp_api_v3&utm_medium=api_v3_business_search&utm_source=uVENxkrx5WKqWp2fTdTrzg", "review_count": 451, "categories": [{"alias": "japanese", "title": "Japanese"}, {"alias": "seafood", "title": "Seafood"}, {"alias": "desserts", "title": "Desserts"}], "rating": 3.8, "coordinates": {"latitude": 40.76528, "longitude": -73.98326}, "transactions": ["pickup", "delivery"], "price": "$$", "location": {"address1": "253 W 55th St", "address2": "", "address3": "", "city": "New York", "zip_code": "10019", "country": "US", "state": "NY", "display_address": ["253 W 55th St", "New York, NY 10019"]}, "phone": "+12129807909", "display_phone": "(212) 980-7909", "distance": 693.7616659149346}, {"id": "Ms1p17KsYteDlkvHnllC2g", "alias": "soba-totto-new-york", "name": "Soba Totto", "image_url": "https://s3-media2.fl.yelpcdn.com/bphoto/IFzqUwH7GW9xYg5ug8ji4A/o.jpg", "is_closed": false, "url": "https://www.yelp.com/biz/soba-totto-new-york?adjust_creative=uVENxkrx5WKqWp2fTdTrzg&utm_campaign=yelp_api_v3&utm_medium=api_v3_business_search&utm_source=uVENxkrx5WKqWp2fTdTrzg", "review_count": 946, "categories": [{"alias": "japanese", "title": "Japanese"}, {"alias": "salad", "title": "Salad"}, {"alias": "bars", "title": "Bars"}], "rating": 3.8, "coordinates": {"latitude": 40.75122, "longitude": -73.97317}, "transactions": ["pickup", "delivery"], "price": "$$", "location": {"address1": "211 E 43rd St", "address2": "", "address3": "", "city": "New York", "zip_code": "10017", "country": "US", "state": "NY", "display_address": ["211 E 43rd St", "New York, NY 10017"]}, "phone": "+12123778947", "display_phone": "(212) 377-8947", "distance": 1093.3774181002352}, {"id": "9QK3vhI04Q8ylqk49C3JcQ", "alias": "rule-of-thirds-brooklyn", "name": "Rule of Thirds", "image_url": "https://s3-media3.fl.yelpcdn.com/bphoto/qLyoUxBjHqg7P54kaOze-w/o.jpg", "is_closed": false, "url": "https://www.yelp.com/biz/rule-of-thirds-brooklyn?adjust_creative=uVENxkrx5WKqWp2fTdTrzg&utm_campaign=yelp_api_v3&utm_medium=api_v3_business_search&utm_source=uVENxkrx5WKqWp2fTdTrzg", "review_count": 648, "categories": [{"alias": "japanese", "title": "Japanese"}, {"alias": "breakfast_brunch", "title": "Breakfast & Brunch"}, {"alias": "cocktailbars", "title": "Cocktail Bars"}], "rating": 4.0, "coordinates": {"latitude": 40.724706, "longitude": -73.955017}, "transactions": ["pickup", "delivery"], "location": {"address1": "171 Banker St", "address2": null, "address3": null, "city": "Brooklyn", "zip_code": "11222", "country": "US", "state": "NY", "display_address": ["171 Banker St", "Brooklyn, NY 11222"]}, "phone": "+13473346684", "display_phone": "(347) 334-6684", "distance": 4411.435894885579}, {"id": "wpT1QU7PSQgQQ1DkzI00JA", "alias": "izakaya-toribar-new-york", "name": "Izakaya Toribar", "image_url": "https://s3-media3.fl.yelpcdn.com/bphoto/BLeJxuHmu9HYpnxFQn4HNw/o.jpg", "is_closed": false, "url": "https://www.yelp.com/biz/izakaya-toribar-new-york?adjust_creative=uVENxkrx5WKqWp2fTdTrzg&utm_campaign=yelp_api_v3&utm_medium=api_v3_business_search&utm_source=uVENxkrx5WKqWp2fTdTrzg", "review_count": 182, "categories": [{"alias": "tapasmallplates", "title": "Tapas/Small Plates"}, {"alias": "izakaya", "title": "Izakaya"}, {"alias": "bars", "title": "Bars"}], "rating": 4.2, "coordinates": {"latitude": 40.759641, "longitude": -73.9685558}, "transactions": ["pickup", "delivery"], "price": "$$", "location": {"address1": "164 E 56th St", "address2": null, "address3": "", "city": "New York", "zip_code": "10022", "country": "US", "state": "NY", "display_address": ["164 E 56th St", "New York, NY 10022"]}, "phone": "+16467670029", "display_phone": "(646) 767-0029", "distance": 840.0057966679174}, {"id": "ax4INkzwL__-d_kGJfcA-w", "alias": "kaikagetsu-nyc-new-york-2", "name": "Kaikagetsu NYC", "image_url": "https://s3-media3.fl.yelpcdn.com/bphoto/GUt60CDqQJwGtifLhFIZ9A/o.jpg", "is_closed": false, "url": "https://www.yelp.com/biz/kaikagetsu-nyc-new-york-2?adjust_creative=uVENxkrx5WKqWp2fTdTrzg&utm_campaign=yelp_api_v3&utm_medium=api_v3_business_search&utm_source=uVENxkrx5WKqWp2fTdTrzg", "review_count": 146, "categories": [{"alias": "japanese", "title": "Japanese"}], "rating": 4.6, "coordinates": {"latitude": 40.72104, "longitude": -73.98848}, "transactions": ["delivery"], "price": "$$$$", "location": {"address1": "162 Orchard St", "address2": "", "address3": null, "city": "New York", "zip_code": "10002", "country": "US", "state": "NY", "display_address": ["162 Orchard St", "New York, NY 10002"]}, "phone": "+16465903900", "display_phone": "(646) 590-3900", "distance": 4437.31954715862}, {"id": "MTtqSunPEZwdCJFMHsiHzg", "alias": "ai-ki-ya-new-york-3", "name": "Ai Ki Ya", "image_url": "https://s3-media4.fl.yelpcdn.com/bphoto/u1PfZOSysEN9DvMFdBx4BQ/o.jpg", "is_closed": false, "url": "https://www.yelp.com/biz/ai-ki-ya-new-york-3?adjust_creative=uVENxkrx5WKqWp2fTdTrzg&utm_campaign=yelp_api_v3&utm_medium=api_v3_business_search&utm_source=uVENxkrx5WKqWp2fTdTrzg", "review_count": 209, "categories": [{"alias": "ramen", "title": "Ramen"}, {"alias": "izakaya", "title": "Izakaya"}, {"alias": "tapasmallplates", "title": "Tapas/Small Plates"}], "rating": 4.3, "coordinates": {"latitude": 40.74873, "longitude": -73.98705}, "transactions": ["pickup", "delivery"], "price": "$$", "location": {"address1": "41 W 33rd St", "address2": "", "address3": null, "city": "New York", "zip_code": "10001", "country": "US", "state": "NY", "display_address": ["41 W 33rd St", "New York, NY 10001"]}, "phone": "+12125486188", "display_phone": "(212) 548-6188", "distance": 1456.4083101716171}, {"id": "lSKEPxxTYxCN9oi6CXRmcQ", "alias": "kin-ramen-new-york", "name": "Kin Ramen", "image_url": "https://s3-media2.fl.yelpcdn.com/bphoto/lk3N0VvfIksjJK-X8dh0hg/o.jpg", "is_closed": false, "url": "https://www.yelp.com/biz/kin-ramen-new-york?adjust_creative=uVENxkrx5WKqWp2fTdTrzg&utm_campaign=yelp_api_v3&utm_medium=api_v3_business_search&utm_source=uVENxkrx5WKqWp2fTdTrzg", "review_count": 391, "categories": [{"alias": "ramen", "title": "Ramen"}, {"alias": "izakaya", "title": "Izakaya"}], "rating": 4.7, "coordinates": {"latitude": 40.76435, "longitude": -73.97904}, "transactions": ["pickup", "delivery"], "price": "$$", "location": {"address1": "129 W 56th St", "address2": null, "address3": "", "city": "New York", "zip_code": "10019", "country": "US", "state": "NY", "display_address": ["129 W 56th St", "New York, NY 10019"]}, "phone": "+12129339292", "display_phone": "(212) 933-9292", "distance": 469.9751013793174}, {"id": "6lUsFj0KCao678o9L7QwUw", "alias": "hatsuhana-new-york", "name": "Hatsuhana", "image_url": "https://s3-media2.fl.yelpcdn.com/bphoto/BgU4cogcT7JT9raJ59vlwQ/o.jpg", "is_closed": false, "url": "https://www.yelp.com/biz/hatsuhana-new-york?adjust_creative=uVENxkrx5WKqWp2fTdTrzg&utm_campaign=yelp_api_v3&utm_medium=api_v3_business_search&utm_source=uVENxkrx5WKqWp2fTdTrzg", "review_count": 1557, "categories": [{"alias": "japanese", "title": "Japanese"}, {"alias": "sushi", "title": "Sushi Bars"}], "rating": 4.2, "coordinates": {"latitude": 40.75703, "longitude": -73.97692}, "transactions": ["pickup", "delivery"], "price": "$$$", "location": {"address1": "17 E 48th St", "address2": "", "address3": "", "city": "New York", "zip_code": "10017", "country": "US", "state": "NY", "display_address": ["17 E 48th St", "New York, NY 10017"]}, "phone": "+12123553345", "display_phone": "(212) 355-3345", "distance": 378.1782315166929}, {"id": "uXsYr76zioJq7jjOKRwQog", "alias": "shinbashi-72-new-york", "name": "Shinbashi 72", "image_url": "https://s3-media1.fl.yelpcdn.com/bphoto/biCYUgBLvY9FEh2HN6D0_g/o.jpg", "is_closed": false, "url": "https://www.yelp.com/biz/shinbashi-72-new-york?adjust_creative=uVENxkrx5WKqWp2fTdTrzg&utm_campaign=yelp_api_v3&utm_medium=api_v3_business_search&utm_source=uVENxkrx5WKqWp2fTdTrzg", "review_count": 98, "categories": [{"alias": "japanese", "title": "Japanese"}, {"alias": "intlgrocery", "title": "International Grocery"}], "rating": 4.7, "coordinates": {"latitude": 40.778751, "longitude": -73.982872}, "transactions": ["pickup", "delivery"], "location": {"address1": "218 W 72nd St", "address2": null, "address3": null, "city": "New York", "zip_code": "10023", "country": "US", "state": "NY", "display_address": ["218 W 72nd St", "New York, NY 10023"]}, "phone": "+12125107799", "display_phone": "(212) 510-7799", "distance": 2100.5937954932265}, {"id": "MwtXOkRUndPU-ivbtLD-bQ", "alias": "amura-japanese-new-york", "name": "Amura Japanese", "image_url": "https://s3-media3.fl.yelpcdn.com/bphoto/4DDr_LGvYG68gyN3tH_I3Q/o.jpg", "is_closed": false, "url": "https://www.yelp.com/biz/amura-japanese-new-york?adjust_creative=uVENxkrx5WKqWp2fTdTrzg&utm_campaign=yelp_api_v3&utm_medium=api_v3_business_search&utm_source=uVENxkrx5WKqWp2fTdTrzg", "review_count": 401, "categories": [{"alias": "japanese", "title": "Japanese"}, {"alias": "sushi", "title": "Sushi Bars"}], "rating": 4.0, "coordinates": {"latitude": 40.775001, "longitude": -73.9542}, "transactions": ["pickup", "delivery"], "price": "$$", "location": {"address1": "1567 2nd Ave", "address2": "", "address3": "", "city": "New York", "zip_code": "10028", "country": "US", "state": "NY", "display_address": ["1567 2nd Ave", "New York, NY 10028"]}, "phone": "+12127721688", "display_phone": "(212) 772-1688", "distance": 2628.9750274859143}, {"id": "qEe7nIhPfEL6L0-VYhWRrA", "alias": "raku-new-york-6", "name": "Raku", "image_url": "https://s3-media1.fl.yelpcdn.com/bphoto/uJUyb5gO9Cc5RQbB5BtIjw/o.jpg", "is_closed": false, "url": "https://www.yelp.com/biz/raku-new-york-6?adjust_creative=uVENxkrx5WKqWp2fTdTrzg&utm_campaign=yelp_api_v3&utm_medium=api_v3_business_search&utm_source=uVENxkrx5WKqWp2fTdTrzg", "review_count": 961, "categories": [{"alias": "japanese", "title": "Japanese"}, {"alias": "noodles", "title": "Noodles"}], "rating": 4.5, "coordinates": {"latitude": 40.7272479, "longitude": -74.00253944171621}, "transactions": ["pickup", "delivery"], "price": "$$", "location": {"address1": "48 Macdougal St", "address2": null, "address3": "", "city": "New York", "zip_code": "10012", "country": "US", "state": "NY", "display_address": ["48 Macdougal St", "New York, NY 10012"]}, "phone": "+12129894797", "display_phone": "(212) 989-4797", "distance": 4187.975853062332}, {"id": "lEH8EUPX3Zn_trHauIycYw", "alias": "aoi-kitchen-new-york", "name": "Aoi Kitchen", "image_url": "https://s3-media4.fl.yelpcdn.com/bphoto/Y1Zg1Hk9gxC4XeRCo5uuvg/o.jpg", "is_closed": false, "url": "https://www.yelp.com/biz/aoi-kitchen-new-york?adjust_creative=uVENxkrx5WKqWp2fTdTrzg&utm_campaign=yelp_api_v3&utm_medium=api_v3_business_search&utm_source=uVENxkrx5WKqWp2fTdTrzg", "review_count": 278, "categories": [{"alias": "izakaya", "title": "Izakaya"}, {"alias": "japacurry", "title": "Japanese Curry"}], "rating": 4.3, "coordinates": {"latitude": 40.72683167, "longitude": -73.98754333}, "transactions": [], "price": "$$", "location": {"address1": "320 E 6th St", "address2": "", "address3": null, "city": "New York", "zip_code": "10003", "country": "US", "state": "NY", "display_address": ["320 E 6th St", "New York, NY 10003"]}, "phone": "+16464540084", "display_phone": "(646) 454-0084", "distance": 3791.929352392537}, {"id": "kesYSgOJW5krU6L8n9qQ4Q", "alias": "ichibantei-new-york", "name": "Ichibantei", "image_url": "https://s3-media2.fl.yelpcdn.com/bphoto/syVfmMRovMpJiPXLs4EUyQ/o.jpg", "is_closed": false, "url": "https://www.yelp.com/biz/ichibantei-new-york?adjust_creative=uVENxkrx5WKqWp2fTdTrzg&utm_campaign=yelp_api_v3&utm_medium=api_v3_business_search&utm_source=uVENxkrx5WKqWp2fTdTrzg", "review_count": 313, "categories": [{"alias": "japanese", "title": "Japanese"}, {"alias": "steak", "title": "Steakhouses"}], "rating": 3.9, "coordinates": {"latitude": 40.73259680054533, "longitude": -73.9880024}, "transactions": ["pickup", "delivery"], "price": "$$", "location": {"address1": "100 3rd Ave", "address2": "", "address3": "", "city": "New York", "zip_code": "10003", "country": "US", "state": "NY", "display_address": ["100 3rd Ave", "New York, NY 10003"]}, "phone": "+19179652327", "display_phone": "(917) 965-2327", "distance": 3173.599212911095}, {"id": "uCXsqMEfD12Rlmp1H09_Nw", "alias": "omakase-sushi-dairo-new-york", "name": "Omakase Sushi Dairo", "image_url": "https://s3-media4.fl.yelpcdn.com/bphoto/-3x5TI7QsE1YhyTFhOJZYQ/o.jpg", "is_closed": false, "url": "https://www.yelp.com/biz/omakase-sushi-dairo-new-york?adjust_creative=uVENxkrx5WKqWp2fTdTrzg&utm_campaign=yelp_api_v3&utm_medium=api_v3_business_search&utm_source=uVENxkrx5WKqWp2fTdTrzg", "review_count": 109, "categories": [{"alias": "japanese", "title": "Japanese"}, {"alias": "sushi", "title": "Sushi Bars"}, {"alias": "soup", "title": "Soup"}], "rating": 4.7, "coordinates": {"latitude": 40.73601, "longitude": -73.98542}, "transactions": ["restaurant_reservation", "delivery", "pickup"], "location": {"address1": "208 3rd Ave", "address2": null, "address3": "", "city": "New York", "zip_code": "10003", "country": "US", "state": "NY", "display_address": ["208 3rd Ave", "New York, NY 10003"]}, "phone": "+12125294193", "display_phone": "(212) 529-4193", "distance": 2752.4662070990494}, {"id": "7OMGEtFWT6sdd9TVuoGqJQ", "alias": "okonomi-brooklyn", "name": "Okonomi", "image_url": "https://s3-media3.fl.yelpcdn.com/bphoto/JghJyl962_3PErNXsFOJPw/o.jpg", "is_closed": false, "url": "https://www.yelp.com/biz/okonomi-brooklyn?adjust_creative=uVENxkrx5WKqWp2fTdTrzg&utm_campaign=yelp_api_v3&utm_medium=api_v3_business_search&utm_source=uVENxkrx5WKqWp2fTdTrzg", "review_count": 541, "categories": [{"alias": "japanese", "title": "Japanese"}, {"alias": "seafood", "title": "Seafood"}], "rating": 4.3, "coordinates": {"latitude": 40.712622, "longitude": -73.9487843}, "transactions": ["pickup", "delivery"], "price": "$$$", "location": {"address1": "150 Ainslie St", "address2": "", "address3": "", "city": "Brooklyn", "zip_code": "11211", "country": "US", "state": "NY", "display_address": ["150 Ainslie St", "Brooklyn, NY 11211"]}, "phone": "+19292950480", "display_phone": "(929) 295-0480", "distance": 5854.4623803730265}, {"id": "_F29-1dkiBmDPSaKQ9_O0Q", "alias": "hakata-tonton-new-york-7", "name": "Hakata Tonton", "image_url": "https://s3-media3.fl.yelpcdn.com/bphoto/b7TR_0gULGWB76o7TD0Bhw/o.jpg", "is_closed": false, "url": "https://www.yelp.com/biz/hakata-tonton-new-york-7?adjust_creative=uVENxkrx5WKqWp2fTdTrzg&utm_campaign=yelp_api_v3&utm_medium=api_v3_business_search&utm_source=uVENxkrx5WKqWp2fTdTrzg", "review_count": 199, "categories": [{"alias": "japanese", "title": "Japanese"}], "rating": 4.2, "coordinates": {"latitude": 40.7499817550954, "longitude": -73.98558845396727}, "transactions": [], "location": {"address1": "35 W 35th St", "address2": null, "address3": null, "city": "New York", "zip_code": "10001", "country": "US", "state": "NY", "display_address": ["35 W 35th St", "New York, NY 10001"]}, "phone": "+19172616536", "display_phone": "(917) 261-6536", "distance": 1284.9934024115275}]