[{"id": "qY1o1MhoRyN84RRhUJtvpQ", "alias": "her-name-is-han-new-york-3", "name": "Her Name Is Han", "image_url": "https://s3-media4.fl.yelpcdn.com/bphoto/yTJ5aCvzs0nMfDUUzHK1XQ/o.jpg", "is_closed": false, "url": "https://www.yelp.com/biz/her-name-is-han-new-york-3?adjust_creative=uVENxkrx5WKqWp2fTdTrzg&utm_campaign=yelp_api_v3&utm_medium=api_v3_business_search&utm_source=uVENxkrx5WKqWp2fTdTrzg", "review_count": 1936, "categories": [{"alias": "korean", "title": "Korean"}, {"alias": "breakfast_brunch", "title": "Breakfast & Brunch"}], "rating": 4.3, "coordinates": {"latitude": 40.7462615966797, "longitude": -73.984733581543}, "transactions": ["delivery", "pickup"], "price": "$$", "location": {"address1": "17 E 31st St", "address2": "", "address3": "", "city": "New York", "zip_code": "10016", "country": "US", "state": "NY", "display_address": ["17 E 31st St", "New York, NY 10016"]}, "phone": "+12127799990", "display_phone": "(212) 779-9990", "distance": 1642.7673195148996}, {"id": "lSQAmoQtmciUld36ogOoOw", "alias": "cho-dang-gol-korean-restaurant-new-york", "name": "Cho Dang Gol Korean Restaurant", "image_url": "https://s3-media4.fl.yelpcdn.com/bphoto/r8B9__okSIGetf9ZtMCKlw/o.jpg", "is_closed": false, "url": "https://www.yelp.com/biz/cho-dang-gol-korean-restaurant-new-york?adjust_creative=uVENxkrx5WKqWp2fTdTrzg&utm_campaign=yelp_api_v3&utm_medium=api_v3_business_search&utm_source=uVENxkrx5WKqWp2fTdTrzg", "review_count": 1616, "categories": [{"alias": "korean", "title": "Korean"}], "rating": 4.1, "coordinates": {"latitude": 40.7502365112305, "longitude": -73.986198425293}, "transactions": ["delivery", "pickup"], "price": "$$", "location": {"address1": "55 W 35th St", "address2": "", "address3": "", "city": "New York", "zip_code": "10001", "country": "US", "state": "NY", "display_address": ["55 W 35th St", "New York, NY 10001"]}, "phone": "+12126958222", "display_phone": "(212) 695-8222", "distance": 1298.5676168064938}, {"id": "2AwOyEUu0yBvZhc5tQ5jsA", "alias": "hojokban-new-york", "name": "Hojokban", "image_url": "https://s3-media4.fl.yelpcdn.com/bphoto/alH_ooaKAC4EhQcMly87dA/o.jpg", "is_closed": false, "url": "https://www.yelp.com/biz/hojokban-new-york?adjust_creative=uVENxkrx5WKqWp2fTdTrzg&utm_campaign=yelp_api_v3&utm_medium=api_v3_business_search&utm_source=uVENxkrx5WKqWp2fTdTrzg", "review_count": 79, "categories": [{"alias": "korean", "title": "Korean"}], "rating": 4.4, "coordinates": {"latitude": 40.745736, "longitude": -73.984795}, "transactions": [], "location": {"address1": "128 Madison Ave", "address2": "Ste 1FL", "address3": "", "city": "New York", "zip_code": "10016", "country": "US", "state": "NY", "display_address": ["128 Madison Ave", "Ste 1FL", "New York, NY 10016"]}, "phone": "+16469520058", "display_phone": "(646) 952-0058", "distance": 1695.6906086551287}, {"id": "orYWYTk6kNK1YODsADk_tg", "alias": "the-jin-new-york", "name": "The Jin", "image_url": "https://s3-media2.fl.yelpcdn.com/bphoto/_4NFiVvIpG4EY4ttkMzyKA/o.jpg", "is_closed": false, "url": "https://www.yelp.com/biz/the-jin-new-york?adjust_creative=uVENxkrx5WKqWp2fTdTrzg&utm_campaign=yelp_api_v3&utm_medium=api_v3_business_search&utm_source=uVENxkrx5WKqWp2fTdTrzg", "review_count": 541, "categories": [{"alias": "korean", "title": "Korean"}, {"alias": "chicken_wings", "title": "Chicken Wings"}, {"alias": "ramen", "title": "Ramen"}], "rating": 4.4, "coordinates": {"latitude": 40.76857, "longitude": -73.98874}, "transactions": ["delivery", "pickup"], "price": "$$", "location": {"address1": "856 10th Ave", "address2": null, "address3": "", "city": "New York", "zip_code": "10019", "country": "US", "state": "NY", "display_address": ["856 10th Ave", "New York, NY 10019"]}, "phone": "+12122233488", "display_phone": "(212) 223-3488", "distance": 1264.5128791762709}, {"id": "gXnC_aZR09BvqEQKGKFjBg", "alias": "bcd-tofu-house-new-york-3", "name": "BCD Tofu House", "image_url": "https://s3-media4.fl.yelpcdn.com/bphoto/WflAzjb5_BKaX8A0SvTaBQ/o.jpg", "is_closed": false, "url": "https://www.yelp.com/biz/bcd-tofu-house-new-york-3?adjust_creative=uVENxkrx5WKqWp2fTdTrzg&utm_campaign=yelp_api_v3&utm_medium=api_v3_business_search&utm_source=uVENxkrx5WKqWp2fTdTrzg", "review_count": 2513, "categories": [{"alias": "korean", "title": "Korean"}], "rating": 3.9, "coordinates": {"latitude": 40.747697348826584, "longitude": -73.98606853079899}, "transactions": ["delivery", "pickup"], "price": "$$", "location": {"address1": "5 W 32nd St", "address2": "", "address3": "", "city": "New York", "zip_code": "10001", "country": "US", "state": "NY", "display_address": ["5 W 32nd St", "New York, NY 10001"]}, "phone": "+12129671900", "display_phone": "(212) 967-1900", "distance": 1530.9269335394415}, {"id": "X8yEmEDD9ZTkHoIRFqzcRw", "alias": "osamil-new-york", "name": "Osamil", "image_url": "https://s3-media2.fl.yelpcdn.com/bphoto/H6vmivma_q2fk_Vfbo9ZVA/o.jpg", "is_closed": false, "url": "https://www.yelp.com/biz/osamil-new-york?adjust_creative=uVENxkrx5WKqWp2fTdTrzg&utm_campaign=yelp_api_v3&utm_medium=api_v3_business_search&utm_source=uVENxkrx5WKqWp2fTdTrzg", "review_count": 754, "categories": [{"alias": "korean", "title": "Korean"}, {"alias": "gastropubs", "title": "Gastropubs"}, {"alias": "tapasmallplates", "title": "Tapas/Small Plates"}], "rating": 4.3, "coordinates": {"latitude": 40.74697, "longitude": -73.9864}, "transactions": ["delivery"], "price": "$$$", "location": {"address1": "5 West 31st St", "address2": null, "address3": "", "city": "New York", "zip_code": "10001", "country": "US", "state": "NY", "display_address": ["5 West 31st St", "New York, NY 10001"]}, "phone": "+12123004713", "display_phone": "(212) 300-4713", "distance": 1618.0928341081865}, {"id": "d7pLL2k__WFcqtQ3cqfpHw", "alias": "moono-new-york", "name": "Moono", "image_url": "https://s3-media4.fl.yelpcdn.com/bphoto/wmkhPd-fl5egU5w4YOkfOw/o.jpg", "is_closed": false, "url": "https://www.yelp.com/biz/moono-new-york?adjust_creative=uVENxkrx5WKqWp2fTdTrzg&utm_campaign=yelp_api_v3&utm_medium=api_v3_business_search&utm_source=uVENxkrx5WKqWp2fTdTrzg", "review_count": 86, "categories": [{"alias": "korean", "title": "Korean"}], "rating": 4.3, "coordinates": {"latitude": 40.746463, "longitude": -73.983289}, "transactions": [], "location": {"address1": "29 E 32nd St", "address2": null, "address3": "", "city": "New York", "zip_code": "10016", "country": "US", "state": "NY", "display_address": ["29 E 32nd St", "New York, NY 10016"]}, "phone": "+16464298309", "display_phone": "(646) 429-8309", "distance": 1584.1943954218536}, {"id": "xZ96vaoL-cQjfotmUKtjJQ", "alias": "barn-joo-35-new-york", "name": "Barn Joo 35", "image_url": "https://s3-media1.fl.yelpcdn.com/bphoto/R2On3eNr3a2MjgtrTCp0pA/o.jpg", "is_closed": false, "url": "https://www.yelp.com/biz/barn-joo-35-new-york?adjust_creative=uVENxkrx5WKqWp2fTdTrzg&utm_campaign=yelp_api_v3&utm_medium=api_v3_business_search&utm_source=uVENxkrx5WKqWp2fTdTrzg", "review_count": 2442, "categories": [{"alias": "korean", "title": "Korean"}, {"alias": "gastropubs", "title": "Gastropubs"}, {"alias": "tapasmallplates", "title": "Tapas/Small Plates"}], "rating": 4.2, "coordinates": {"latitude": 40.74964, "longitude": -73.98582}, "transactions": ["delivery", "pickup"], "price": "$$", "location": {"address1": "34 W 35th St", "address2": "", "address3": "", "city": "New York", "zip_code": "10001", "country": "US", "state": "NY", "display_address": ["34 W 35th St", "New York, NY 10001"]}, "phone": "+12125644430", "display_phone": "(212) 564-4430", "distance": 1325.4062634970542}, {"id": "VvsZAnEwU4c8Xkyrzx05Nw", "alias": "anytime-kitchen-new-york-2", "name": "Anytime Kitchen ", "image_url": "https://s3-media3.fl.yelpcdn.com/bphoto/APN3oda1GREsCVa9M8hgfw/o.jpg", "is_closed": false, "url": "https://www.yelp.com/biz/anytime-kitchen-new-york-2?adjust_creative=uVENxkrx5WKqWp2fTdTrzg&utm_campaign=yelp_api_v3&utm_medium=api_v3_business_search&utm_source=uVENxkrx5WKqWp2fTdTrzg", "review_count": 2856, "categories": [{"alias": "korean", "title": "Korean"}, {"alias": "tapasmallplates", "title": "Tapas/Small Plates"}, {"alias": "bbq", "title": "Barbeque"}], "rating": 4.6, "coordinates": {"latitude": 40.74776270790539, "longitude": -73.9867793576711}, "transactions": ["restaurant_reservation", "delivery", "pickup"], "price": "$$", "location": {"address1": "23 W 32nd St", "address2": "Fl 3", "address3": "", "city": "New York", "zip_code": "10001", "country": "US", "state": "NY", "display_address": ["23 W 32nd St", "Fl 3", "New York, NY 10001"]}, "phone": "+16466697733", "display_phone": "(646) 669-7733", "distance": 1550.3165364482013}, {"id": "FZpm4_fbd6P984foOUejWg", "alias": "jongro-bbq-new-york-3", "name": "Jongro BBQ", "image_url": "https://s3-media2.fl.yelpcdn.com/bphoto/tbzTV0uNadnKlQfKurNfAQ/o.jpg", "is_closed": false, "url": "https://www.yelp.com/biz/jongro-bbq-new-york-3?adjust_creative=uVENxkrx5WKqWp2fTdTrzg&utm_campaign=yelp_api_v3&utm_medium=api_v3_business_search&utm_source=uVENxkrx5WKqWp2fTdTrzg", "review_count": 2587, "categories": [{"alias": "korean", "title": "Korean"}, {"alias": "bbq", "title": "Barbeque"}, {"alias": "bars", "title": "Bars"}], "rating": 4.2, "coordinates": {"latitude": 40.747514, "longitude": -73.986884}, "transactions": ["delivery"], "price": "$$", "location": {"address1": "22 W 32nd St", "address2": "Fl 2", "address3": "", "city": "New York", "zip_code": "10001", "country": "US", "state": "NY", "display_address": ["22 W 32nd St", "Fl 2", "New York, NY 10001"]}, "phone": "+12124732233", "display_phone": "(212) 473-2233", "distance": 1578.987816539336}, {"id": "xTwzk3lh7tE2GFiVQop1kg", "alias": "nubiani-new-york", "name": "Nubiani", "image_url": "https://s3-media4.fl.yelpcdn.com/bphoto/RUsAF1xxZMrVHNBYe3cbNQ/o.jpg", "is_closed": false, "url": "https://www.yelp.com/biz/nubiani-new-york?adjust_creative=uVENxkrx5WKqWp2fTdTrzg&utm_campaign=yelp_api_v3&utm_medium=api_v3_business_search&utm_source=uVENxkrx5WKqWp2fTdTrzg", "review_count": 214, "categories": [{"alias": "korean", "title": "Korean"}, {"alias": "bbq", "title": "Barbeque"}], "rating": 4.5, "coordinates": {"latitude": 40.74700575561414, "longitude": -73.9854169149663}, "transactions": ["delivery", "pickup"], "location": {"address1": "315 5th Ave", "address2": "Fl 3", "address3": "", "city": "New York", "zip_code": "10016", "country": "US", "state": "NY", "display_address": ["315 5th Ave", "Fl 3", "New York, NY 10016"]}, "phone": "+19176230807", "display_phone": "(917) 623-0807", "distance": 1580.1154152269592}, {"id": "ggIzrvCArIHWIBIGJlzUPQ", "alias": "seoul-st-midtown-sacramento-3", "name": "Seoul St Midtown", "image_url": "https://s3-media2.fl.yelpcdn.com/bphoto/4pnImZ3nUOts3RrGqMpTMQ/o.jpg", "is_closed": false, "url": "https://www.yelp.com/biz/seoul-st-midtown-sacramento-3?adjust_creative=uVENxkrx5WKqWp2fTdTrzg&utm_campaign=yelp_api_v3&utm_medium=api_v3_business_search&utm_source=uVENxkrx5WKqWp2fTdTrzg", "review_count": 465, "categories": [{"alias": "korean", "title": "Korean"}, {"alias": "cocktailbars", "title": "Cocktail Bars"}], "rating": 4.2, "coordinates": {"latitude": 38.57640638207569, "longitude": -121.4864538315563}, "transactions": ["delivery", "pickup"], "price": "$$", "location": {"address1": "1521 L St", "address2": "", "address3": null, "city": "Sacramento", "zip_code": "95814", "country": "US", "state": "CA", "display_address": ["1521 L St", "Sacramento, CA 95814"]}, "phone": "+19162929744", "display_phone": "(916) 292-9744", "distance": 853.6097227386425}, {"id": "nMyot99PkX5iYCdxHoRJqQ", "alias": "ariari-new-york", "name": "ARIARI", "image_url": "https://s3-media1.fl.yelpcdn.com/bphoto/IQbVjJaYnvf1QZlgocL1Bw/o.jpg", "is_closed": false, "url": "https://www.yelp.com/biz/ariari-new-york?adjust_creative=uVENxkrx5WKqWp2fTdTrzg&utm_campaign=yelp_api_v3&utm_medium=api_v3_business_search&utm_source=uVENxkrx5WKqWp2fTdTrzg", "review_count": 277, "categories": [{"alias": "korean", "title": "Korean"}, {"alias": "tapasmallplates", "title": "Tapas/Small Plates"}, {"alias": "gastropubs", "title": "Gastropubs"}], "rating": 4.4, "coordinates": {"latitude": 40.727283504010266, "longitude": -73.9858313}, "transactions": [], "location": {"address1": "119 1st Ave", "address2": null, "address3": "", "city": "New York", "zip_code": "10003", "country": "US", "state": "NY", "display_address": ["119 1st Ave", "New York, NY 10003"]}, "phone": "+16464227466", "display_phone": "(646) 422-7466", "distance": 3713.517685121957}, {"id": "ogCC-lJJYnwXDvKGmKZ6Sw", "alias": "woorijip-new-york-2", "name": "Woorijip", "image_url": "https://s3-media3.fl.yelpcdn.com/bphoto/iYSMnaEFLFD_wjDc7dsULQ/o.jpg", "is_closed": false, "url": "https://www.yelp.com/biz/woorijip-new-york-2?adjust_creative=uVENxkrx5WKqWp2fTdTrzg&utm_campaign=yelp_api_v3&utm_medium=api_v3_business_search&utm_source=uVENxkrx5WKqWp2fTdTrzg", "review_count": 2919, "categories": [{"alias": "korean", "title": "Korean"}], "rating": 4.0, "coordinates": {"latitude": 40.74747, "longitude": -73.98648}, "transactions": ["delivery", "pickup"], "price": "$$", "location": {"address1": "12 W 32nd St", "address2": "", "address3": "", "city": "New York", "zip_code": "10001", "country": "US", "state": "NY", "display_address": ["12 W 32nd St", "New York, NY 10001"]}, "phone": "+12122441115", "display_phone": "(212) 244-1115", "distance": 1578.239664148041}, {"id": "IjQ2yGUKkvP0JIldT9vRFQ", "alias": "take31-new-york", "name": "Take31", "image_url": "https://s3-media2.fl.yelpcdn.com/bphoto/v3aB2dmJLVsZw3Ig0Mhztg/o.jpg", "is_closed": false, "url": "https://www.yelp.com/biz/take31-new-york?adjust_creative=uVENxkrx5WKqWp2fTdTrzg&utm_campaign=yelp_api_v3&utm_medium=api_v3_business_search&utm_source=uVENxkrx5WKqWp2fTdTrzg", "review_count": 931, "categories": [{"alias": "korean", "title": "Korean"}, {"alias": "gastropubs", "title": "Gastropubs"}, {"alias": "soulfood", "title": "Soul Food"}], "rating": 4.3, "coordinates": {"latitude": 40.7463, "longitude": -73.984809}, "transactions": ["delivery", "pickup"], "price": "$$$", "location": {"address1": "15 E 31st St", "address2": "", "address3": "", "city": "New York", "zip_code": "10016", "country": "US", "state": "NY", "display_address": ["15 E 31st St", "New York, NY 10016"]}, "phone": "+19292370681", "display_phone": "(929) 237-0681", "distance": 1635.9747100867862}, {"id": "xtxcAUvrD4dWHJd0cwvW1A", "alias": "jeju-noodle-bar-new-york", "name": "JeJu Noodle Bar", "image_url": "https://s3-media2.fl.yelpcdn.com/bphoto/Y4pR--TEJCbfh8zOT0yE8g/o.jpg", "is_closed": false, "url": "https://www.yelp.com/biz/jeju-noodle-bar-new-york?adjust_creative=uVENxkrx5WKqWp2fTdTrzg&utm_campaign=yelp_api_v3&utm_medium=api_v3_business_search&utm_source=uVENxkrx5WKqWp2fTdTrzg", "review_count": 1048, "categories": [{"alias": "korean", "title": "Korean"}, {"alias": "noodles", "title": "Noodles"}, {"alias": "wine_bars", "title": "Wine Bars"}], "rating": 4.2, "coordinates": {"latitude": 40.73304, "longitude": -74.00734}, "transactions": ["delivery"], "price": "$$", "location": {"address1": "679 Greenwich St", "address2": "", "address3": null, "city": "New York", "zip_code": "10014", "country": "US", "state": "NY", "display_address": ["679 Greenwich St", "New York, NY 10014"]}, "phone": "+16466660947", "display_phone": "(646) 666-0947", "distance": 3873.5619131257}, {"id": "fVbUVAiLiGgLA_nxBFxyww", "alias": "thursday-kitchen-new-york", "name": "Thursday Kitchen", "image_url": "https://s3-media2.fl.yelpcdn.com/bphoto/rNxrGdNWsrbivc0O1z2YXQ/o.jpg", "is_closed": false, "url": "https://www.yelp.com/biz/thursday-kitchen-new-york?adjust_creative=uVENxkrx5WKqWp2fTdTrzg&utm_campaign=yelp_api_v3&utm_medium=api_v3_business_search&utm_source=uVENxkrx5WKqWp2fTdTrzg", "review_count": 1812, "categories": [{"alias": "korean", "title": "Korean"}, {"alias": "newamerican", "title": "New American"}, {"alias": "tapasmallplates", "title": "Tapas/Small Plates"}], "rating": 4.4, "coordinates": {"latitude": 40.72761, "longitude": -73.98373}, "transactions": ["delivery", "pickup"], "price": "$$", "location": {"address1": "424 E 9th St", "address2": null, "address3": "", "city": "New York", "zip_code": "10009", "country": "US", "state": "NY", "display_address": ["424 E 9th St", "New York, NY 10009"]}, "phone": "", "display_phone": "", "distance": 3655.4996147062816}, {"id": "H29Gi3uoFtaqPaO1Z3KwJw", "alias": "sam-woo-jung-new-york-2", "name": "Sam Woo Jung", "image_url": "https://s3-media1.fl.yelpcdn.com/bphoto/0KkDEnStN-XwtHxp_b3OSQ/o.jpg", "is_closed": false, "url": "https://www.yelp.com/biz/sam-woo-jung-new-york-2?adjust_creative=uVENxkrx5WKqWp2fTdTrzg&utm_campaign=yelp_api_v3&utm_medium=api_v3_business_search&utm_source=uVENxkrx5WKqWp2fTdTrzg", "review_count": 80, "categories": [{"alias": "korean", "title": "Korean"}, {"alias": "bars", "title": "Bars"}, {"alias": "seafood", "title": "Seafood"}], "rating": 4.3, "coordinates": {"latitude": 40.749, "longitude": -73.99028}, "transactions": [], "location": {"address1": "138 W 32nd St", "address2": "", "address3": null, "city": "New York", "zip_code": "10001", "country": "US", "state": "NY", "display_address": ["138 W 32nd St", "New York, NY 10001"]}, "phone": "+12125171963", "display_phone": "(212) 517-1963", "distance": 1593.3485546246334}, {"id": "js7pXIr0lGoTd_6HPMPckg", "alias": "okdongsik-new-york", "name": "Okdongsik", "image_url": "https://s3-media3.fl.yelpcdn.com/bphoto/BvzaKq-dCLgJKyeW-tPhyg/o.jpg", "is_closed": false, "url": "https://www.yelp.com/biz/okdongsik-new-york?adjust_creative=uVENxkrx5WKqWp2fTdTrzg&utm_campaign=yelp_api_v3&utm_medium=api_v3_business_search&utm_source=uVENxkrx5WKqWp2fTdTrzg", "review_count": 281, "categories": [{"alias": "korean", "title": "Korean"}, {"alias": "soup", "title": "Soup"}, {"alias": "soulfood", "title": "Soul Food"}], "rating": 4.3, "coordinates": {"latitude": 40.74561, "longitude": -73.98543}, "transactions": [], "price": "$$", "location": {"address1": "13 E 30th St", "address2": "", "address3": null, "city": "New York", "zip_code": "10016", "country": "US", "state": "NY", "display_address": ["13 E 30th St", "New York, NY 10016"]}, "phone": "", "display_phone": "", "distance": 1715.2870677003116}, {"id": "EKkHfSYTm266-ZBve3SdgA", "alias": "yoon-haeundae-galbi-new-york-2", "name": "Yoon Haeundae Galbi", "image_url": "https://s3-media1.fl.yelpcdn.com/bphoto/BpXNPvOjoErxD5xnhBaa-A/o.jpg", "is_closed": false, "url": "https://www.yelp.com/biz/yoon-haeundae-galbi-new-york-2?adjust_creative=uVENxkrx5WKqWp2fTdTrzg&utm_campaign=yelp_api_v3&utm_medium=api_v3_business_search&utm_source=uVENxkrx5WKqWp2fTdTrzg", "review_count": 756, "categories": [{"alias": "korean", "title": "Korean"}, {"alias": "bbq", "title": "Barbeque"}, {"alias": "steak", "title": "Steakhouses"}], "rating": 4.3, "coordinates": {"latitude": 40.74996750318778, "longitude": -73.98443095513923}, "transactions": [], "price": "$$$", "location": {"address1": "8 W 36th St", "address2": "", "address3": null, "city": "New York", "zip_code": "10018", "country": "US", "state": "NY", "display_address": ["8 W 36th St", "New York, NY 10018"]}, "phone": "+12126918078", "display_phone": "(212) 691-8078", "distance": 1244.1480247894362}, {"id": "fNKYBpQJivICm0ORb3nb_Q", "alias": "8282-new-york-2", "name": "8282", "image_url": "https://s3-media2.fl.yelpcdn.com/bphoto/jMQtrS6w53Okpgnqe30kmw/o.jpg", "is_closed": false, "url": "https://www.yelp.com/biz/8282-new-york-2?adjust_creative=uVENxkrx5WKqWp2fTdTrzg&utm_campaign=yelp_api_v3&utm_medium=api_v3_business_search&utm_source=uVENxkrx5WKqWp2fTdTrzg", "review_count": 204, "categories": [{"alias": "korean", "title": "Korean"}], "rating": 4.6, "coordinates": {"latitude": 40.72161, "longitude": -73.98875}, "transactions": [], "location": {"address1": "84 Stanton St", "address2": null, "address3": "", "city": "New York", "zip_code": "10002", "country": "US", "state": "NY", "display_address": ["84 Stanton St", "New York, NY 10002"]}, "phone": "+19298370360", "display_phone": "(929) 837-0360", "distance": 4371.968294021467}, {"id": "fVsH6QIJPzXpVbgmeiolsA", "alias": "jungsik-new-york", "name": "Jungsik", "image_url": "https://s3-media1.fl.yelpcdn.com/bphoto/_ncio5vx-9Xtd_7epbLB-g/o.jpg", "is_closed": false, "url": "https://www.yelp.com/biz/jungsik-new-york?adjust_creative=uVENxkrx5WKqWp2fTdTrzg&utm_campaign=yelp_api_v3&utm_medium=api_v3_business_search&utm_source=uVENxkrx5WKqWp2fTdTrzg", "review_count": 772, "categories": [{"alias": "korean", "title": "Korean"}], "rating": 4.6, "coordinates": {"latitude": 40.7188032533572, "longitude": -74.0090829725856}, "transactions": [], "price": "$$$$", "location": {"address1": "2 Harrison St", "address2": "", "address3": "", "city": "New York", "zip_code": "10013", "country": "US", "state": "NY", "display_address": ["2 Harrison St", "New York, NY 10013"]}, "phone": "+12122190900", "display_phone": "(212) 219-0900", "distance": 5276.618526459718}, {"id": "BfpCasg4DRc1PO4jdCZqlA", "alias": "don-don-new-york", "name": "Don Don", "image_url": "https://s3-media3.fl.yelpcdn.com/bphoto/tHnQo9IkPGYwq_LHOJWzKg/o.jpg", "is_closed": false, "url": "https://www.yelp.com/biz/don-don-new-york?adjust_creative=uVENxkrx5WKqWp2fTdTrzg&utm_campaign=yelp_api_v3&utm_medium=api_v3_business_search&utm_source=uVENxkrx5WKqWp2fTdTrzg", "review_count": 41, "categories": [{"alias": "bbq", "title": "Barbeque"}, {"alias": "gourmet", "title": "Specialty Food"}, {"alias": "korean", "title": "Korean"}], "rating": 4.3, "coordinates": {"latitude": 40.755148, "longitude": -73.982153}, "transactions": [], "location": {"address1": "37 W 43rd St", "address2": "", "address3": null, "city": "New York", "zip_code": "10036", "country": "US", "state": "NY", "display_address": ["37 W 43rd St", "New York, NY 10036"]}, "phone": "+16468640016", "display_phone": "(646) 864-0016", "distance": 644.7694629702261}, {"id": "xQag1K9NezcXdXXn2AZcqA", "alias": "kjun-new-york", "name": "Kjun", "image_url": "https://s3-media4.fl.yelpcdn.com/bphoto/7VA72QOSJaEQ4nMWXMPEqA/o.jpg", "is_closed": false, "url": "https://www.yelp.com/biz/kjun-new-york?adjust_creative=uVENxkrx5WKqWp2fTdTrzg&utm_campaign=yelp_api_v3&utm_medium=api_v3_business_search&utm_source=uVENxkrx5WKqWp2fTdTrzg", "review_count": 139, "categories": [{"alias": "korean", "title": "Korean"}, {"alias": "cajun", "title": "Cajun/Creole"}], "rating": 4.6, "coordinates": {"latitude": 40.74897, "longitude": -73.97633}, "transactions": ["delivery", "pickup"], "price": "$$$", "location": {"address1": "154 E 39th St", "address2": "", "address3": null, "city": "New York", "zip_code": "10016", "country": "US", "state": "NY", "display_address": ["154 E 39th St", "New York, NY 10016"]}, "phone": "+13476758026", "display_phone": "(347) 675-8026", "distance": 1259.990835539687}, {"id": "V95hnN4N2vw1ph2mDxIA7w", "alias": "olle-new-york", "name": "Olle", "image_url": "https://s3-media1.fl.yelpcdn.com/bphoto/68uvF5_lw8DaUoTcsIttCA/o.jpg", "is_closed": false, "url": "https://www.yelp.com/biz/olle-new-york?adjust_creative=uVENxkrx5WKqWp2fTdTrzg&utm_campaign=yelp_api_v3&utm_medium=api_v3_business_search&utm_source=uVENxkrx5WKqWp2fTdTrzg", "review_count": 195, "categories": [{"alias": "korean", "title": "Korean"}], "rating": 4.4, "coordinates": {"latitude": 40.74564, "longitude": -73.9855}, "transactions": [], "price": "$$$", "location": {"address1": "11 E 30th St", "address2": null, "address3": "", "city": "New York", "zip_code": "10016", "country": "US", "state": "NY", "display_address": ["11 E 30th St", "New York, NY 10016"]}, "phone": "+16463689922", "display_phone": "(646) 368-9922", "distance": 1710.774773814918}, {"id": "vpkUUhs6dCnGeD-Vz0D29Q", "alias": "sam-sunny-new-york", "name": "Sam Sunny", "image_url": "https://s3-media1.fl.yelpcdn.com/bphoto/yQTfzjDYxkU1ZO4qF-pU2A/o.jpg", "is_closed": false, "url": "https://www.yelp.com/biz/sam-sunny-new-york?adjust_creative=uVENxkrx5WKqWp2fTdTrzg&utm_campaign=yelp_api_v3&utm_medium=api_v3_business_search&utm_source=uVENxkrx5WKqWp2fTdTrzg", "review_count": 221, "categories": [{"alias": "korean", "title": "Korean"}, {"alias": "cocktailbars", "title": "Cocktail Bars"}, {"alias": "bbq", "title": "Barbeque"}], "rating": 4.5, "coordinates": {"latitude": 40.74156, "longitude": -73.97846}, "transactions": ["delivery", "pickup"], "price": "$$$", "location": {"address1": "517 2nd Ave", "address2": null, "address3": "", "city": "New York", "zip_code": "10016", "country": "US", "state": "NY", "display_address": ["517 2nd Ave", "New York, NY 10016"]}, "phone": "+12128371044", "display_phone": "(212) 837-1044", "distance": 2070.505520174921}, {"id": "pZWhRtCJvTuwWoavaiCQrA", "alias": "c-as-in-charlie-new-york", "name": "C as in Charlie", "image_url": "https://s3-media1.fl.yelpcdn.com/bphoto/s_IHLE4dHQa_eWY7kz3g_Q/o.jpg", "is_closed": false, "url": "https://www.yelp.com/biz/c-as-in-charlie-new-york?adjust_creative=uVENxkrx5WKqWp2fTdTrzg&utm_campaign=yelp_api_v3&utm_medium=api_v3_business_search&utm_source=uVENxkrx5WKqWp2fTdTrzg", "review_count": 250, "categories": [{"alias": "korean", "title": "Korean"}, {"alias": "tapasmallplates", "title": "Tapas/Small Plates"}, {"alias": "southern", "title": "Southern"}], "rating": 4.6, "coordinates": {"latitude": 40.72545, "longitude": -73.99269}, "transactions": [], "location": {"address1": "5 Bleecker St", "address2": null, "address3": "", "city": "New York", "zip_code": "10012", "country": "US", "state": "NY", "display_address": ["5 Bleecker St", "New York, NY 10012"]}, "phone": "", "display_phone": "", "distance": 4040.863569513658}, {"id": "_saXnBy0Wq2Gb3YusWZhqw", "alias": "five-senses-new-york", "name": "Five Senses", "image_url": "https://s3-media3.fl.yelpcdn.com/bphoto/Wxh01qA7K-xUVM-0pqBCdg/o.jpg", "is_closed": false, "url": "https://www.yelp.com/biz/five-senses-new-york?adjust_creative=uVENxkrx5WKqWp2fTdTrzg&utm_campaign=yelp_api_v3&utm_medium=api_v3_business_search&utm_source=uVENxkrx5WKqWp2fTdTrzg", "review_count": 1755, "categories": [{"alias": "korean", "title": "Korean"}, {"alias": "bbq", "title": "Barbeque"}], "rating": 3.9, "coordinates": {"latitude": 40.747573158626, "longitude": -73.9863122632311}, "transactions": ["delivery", "pickup"], "price": "$$", "location": {"address1": "9 W 32nd St", "address2": "", "address3": "", "city": "New York", "zip_code": "10001", "country": "US", "state": "NY", "display_address": ["9 W 32nd St", "New York, NY 10001"]}, "phone": "+12124410005", "display_phone": "(212) 441-0005", "distance": 1552.0848987661009}, {"id": "wfGFM8zvdw9Zs-jxsTdjww", "alias": "soju-haus-new-york", "name": "Soju Haus", "image_url": "https://s3-media3.fl.yelpcdn.com/bphoto/8XHqpSyDi5d4eQp3uISlig/o.jpg", "is_closed": false, "url": "https://www.yelp.com/biz/soju-haus-new-york?adjust_creative=uVENxkrx5WKqWp2fTdTrzg&utm_campaign=yelp_api_v3&utm_medium=api_v3_business_search&utm_source=uVENxkrx5WKqWp2fTdTrzg", "review_count": 692, "categories": [{"alias": "korean", "title": "Korean"}, {"alias": "bars", "title": "Bars"}], "rating": 3.9, "coordinates": {"latitude": 40.7468603, "longitude": -73.9851724}, "transactions": ["delivery", "pickup"], "price": "$$", "location": {"address1": "315 5th Ave", "address2": "Fl 2", "address3": "", "city": "New York", "zip_code": "10016", "country": "US", "state": "NY", "display_address": ["315 5th Ave", "Fl 2", "New York, NY 10016"]}, "phone": "+12122132177", "display_phone": "(212) 213-2177", "distance": 1587.754613425073}, {"id": "T-Ecr4hzd2YCFMM57fuyUg", "alias": "tosokchon-nyc-new-york", "name": "Tosokchon NYC", "image_url": "https://s3-media4.fl.yelpcdn.com/bphoto/AaFAw2k5LIcWqz4v8L8nVg/o.jpg", "is_closed": false, "url": "https://www.yelp.com/biz/tosokchon-nyc-new-york?adjust_creative=uVENxkrx5WKqWp2fTdTrzg&utm_campaign=yelp_api_v3&utm_medium=api_v3_business_search&utm_source=uVENxkrx5WKqWp2fTdTrzg", "review_count": 50, "categories": [{"alias": "asianfusion", "title": "Asian Fusion"}, {"alias": "korean", "title": "Korean"}], "rating": 4.0, "coordinates": {"latitude": 40.747183, "longitude": -73.984321}, "transactions": ["restaurant_reservation", "delivery", "pickup"], "location": {"address1": "14 E 33rd Street 1FL", "address2": null, "address3": "", "city": "New York", "zip_code": "10016", "country": "US", "state": "NY", "display_address": ["14 E 33rd Street 1FL", "New York, NY 10016"]}, "phone": "+16463988880", "display_phone": "(646) 398-8880", "distance": 1524.139567595602}, {"id": "FizBsTIAJwNrImIG1mPDcg", "alias": "barn-joo-new-york-3", "name": "Barn Joo", "image_url": "https://s3-media3.fl.yelpcdn.com/bphoto/3RuoWbbQeQGP_jOMxcJQ9g/o.jpg", "is_closed": false, "url": "https://www.yelp.com/biz/barn-joo-new-york-3?adjust_creative=uVENxkrx5WKqWp2fTdTrzg&utm_campaign=yelp_api_v3&utm_medium=api_v3_business_search&utm_source=uVENxkrx5WKqWp2fTdTrzg", "review_count": 1929, "categories": [{"alias": "korean", "title": "Korean"}, {"alias": "cocktailbars", "title": "Cocktail Bars"}, {"alias": "tapasmallplates", "title": "Tapas/Small Plates"}], "rating": 4.0, "coordinates": {"latitude": 40.73687872208401, "longitude": -73.99076297177562}, "transactions": ["delivery", "pickup"], "price": "$$", "location": {"address1": "35 Union Sq W", "address2": "", "address3": null, "city": "New York", "zip_code": "10003", "country": "US", "state": "NY", "display_address": ["35 Union Sq W", "New York, NY 10003"]}, "phone": "+16463989663", "display_phone": "(646) 398-9663", "distance": 2792.9168214145247}, {"id": "E1el5ybKlOgybpvoknc40g", "alias": "coqodaq-new-york", "name": "Coqodaq", "image_url": "https://s3-media4.fl.yelpcdn.com/bphoto/OkvLq8Cakc2Mv4ZPW8v3mg/o.jpg", "is_closed": false, "url": "https://www.yelp.com/biz/coqodaq-new-york?adjust_creative=uVENxkrx5WKqWp2fTdTrzg&utm_campaign=yelp_api_v3&utm_medium=api_v3_business_search&utm_source=uVENxkrx5WKqWp2fTdTrzg", "review_count": 24, "categories": [{"alias": "korean", "title": "Korean"}, {"alias": "chicken_wings", "title": "Chicken Wings"}, {"alias": "cocktailbars", "title": "Cocktail Bars"}], "rating": 3.8, "coordinates": {"latitude": 40.740066, "longitude": -73.98874}, "transactions": [], "location": {"address1": "12 E 22nd St", "address2": "", "address3": null, "city": "New York", "zip_code": "10010", "country": "US", "state": "NY", "display_address": ["12 E 22nd St", "New York, NY 10010"]}, "phone": "+16464905099", "display_phone": "(646) 490-5099", "distance": 2402.009043200022}, {"id": "fX_E2J6LqK6u77zNa8xyJQ", "alias": "jua-new-york", "name": "JUA", "image_url": "https://s3-media2.fl.yelpcdn.com/bphoto/0uPI4vr-h_7aIyVWLnd3sw/o.jpg", "is_closed": false, "url": "https://www.yelp.com/biz/jua-new-york?adjust_creative=uVENxkrx5WKqWp2fTdTrzg&utm_campaign=yelp_api_v3&utm_medium=api_v3_business_search&utm_source=uVENxkrx5WKqWp2fTdTrzg", "review_count": 386, "categories": [{"alias": "korean", "title": "Korean"}], "rating": 4.7, "coordinates": {"latitude": 40.739694, "longitude": -73.987832}, "transactions": ["delivery", "pickup"], "price": "$$$$", "location": {"address1": "36 E 22nd St", "address2": null, "address3": "", "city": "New York", "zip_code": "10010", "country": "US", "state": "NY", "display_address": ["36 E 22nd St", "New York, NY 10010"]}, "phone": "", "display_phone": "", "distance": 2415.647079011988}, {"id": "e5wK3I_THzF4Ce_OgoSCQw", "alias": "mokyo-new-york-2", "name": "Mokyo", "image_url": "https://s3-media2.fl.yelpcdn.com/bphoto/tIO2leoOqXxL6E-C1fwJvw/o.jpg", "is_closed": false, "url": "https://www.yelp.com/biz/mokyo-new-york-2?adjust_creative=uVENxkrx5WKqWp2fTdTrzg&utm_campaign=yelp_api_v3&utm_medium=api_v3_business_search&utm_source=uVENxkrx5WKqWp2fTdTrzg", "review_count": 362, "categories": [{"alias": "korean", "title": "Korean"}, {"alias": "tapasmallplates", "title": "Tapas/Small Plates"}, {"alias": "cocktailbars", "title": "Cocktail Bars"}], "rating": 4.6, "coordinates": {"latitude": 40.72714401116084, "longitude": -73.98395721296154}, "transactions": ["delivery", "pickup"], "location": {"address1": "109 St Marks Pl", "address2": "", "address3": null, "city": "New York", "zip_code": "10009", "country": "US", "state": "NY", "display_address": ["109 St Marks Pl", "New York, NY 10009"]}, "phone": "", "display_phone": "", "distance": 3705.93598320846}, {"id": "6GAB0Rn6eBqCUO9Tx9BNgQ", "alias": "b\u014dm-new-york-3", "name": "b\u014dm", "image_url": "https://s3-media4.fl.yelpcdn.com/bphoto/NwH5PcSJ3pCN7fJs-3t3fw/o.jpg", "is_closed": false, "url": "https://www.yelp.com/biz/b%C5%8Dm-new-york-3?adjust_creative=uVENxkrx5WKqWp2fTdTrzg&utm_campaign=yelp_api_v3&utm_medium=api_v3_business_search&utm_source=uVENxkrx5WKqWp2fTdTrzg", "review_count": 28, "categories": [{"alias": "korean", "title": "Korean"}], "rating": 4.9, "coordinates": {"latitude": 40.73966, "longitude": -73.99247}, "transactions": [], "location": {"address1": "17 W 19th St", "address2": "", "address3": null, "city": "New York", "zip_code": "10011", "country": "US", "state": "NY", "display_address": ["17 W 19th St", "New York, NY 10011"]}, "phone": "+12122561368", "display_phone": "(212) 256-1368", "distance": 2570.2534744917875}, {"id": "md5mjDamLsh1uxHDU9PfGA", "alias": "mr-mista-oh-new-york", "name": "Mr Mista Oh", "image_url": "https://s3-media2.fl.yelpcdn.com/bphoto/nc_jIJwC3fw2TIsmbtHyGA/o.jpg", "is_closed": false, "url": "https://www.yelp.com/biz/mr-mista-oh-new-york?adjust_creative=uVENxkrx5WKqWp2fTdTrzg&utm_campaign=yelp_api_v3&utm_medium=api_v3_business_search&utm_source=uVENxkrx5WKqWp2fTdTrzg", "review_count": 209, "categories": [{"alias": "korean", "title": "Korean"}], "rating": 4.5, "coordinates": {"latitude": 40.74332767519521, "longitude": -73.9912032}, "transactions": ["delivery", "pickup"], "price": "$$", "location": {"address1": "41 W 24th St", "address2": null, "address3": "", "city": "New York", "zip_code": "10010", "country": "US", "state": "NY", "display_address": ["41 W 24th St", "New York, NY 10010"]}, "phone": "+16465598858", "display_phone": "(646) 559-8858", "distance": 2161.2454068633206}, {"id": "psqD5se4A0sv9Zn3PyUlcg", "alias": "k-bap-and-wings-new-york", "name": "K-Bap & Wings", "image_url": "https://s3-media1.fl.yelpcdn.com/bphoto/CeL8O-SVrvOqRaYY6Z9lAw/o.jpg", "is_closed": false, "url": "https://www.yelp.com/biz/k-bap-and-wings-new-york?adjust_creative=uVENxkrx5WKqWp2fTdTrzg&utm_campaign=yelp_api_v3&utm_medium=api_v3_business_search&utm_source=uVENxkrx5WKqWp2fTdTrzg", "review_count": 492, "categories": [{"alias": "korean", "title": "Korean"}, {"alias": "chicken_wings", "title": "Chicken Wings"}, {"alias": "soup", "title": "Soup"}], "rating": 3.9, "coordinates": {"latitude": 40.76331, "longitude": -73.97717}, "transactions": ["delivery", "pickup"], "price": "$$", "location": {"address1": "62 W 56th St", "address2": null, "address3": null, "city": "New York", "zip_code": "10019", "country": "US", "state": "NY", "display_address": ["62 W 56th St", "New York, NY 10019"]}, "phone": "+19176393814", "display_phone": "(917) 639-3814", "distance": 367.67427342443006}, {"id": "n7hfvvUtzeaLwKCGVegALQ", "alias": "konban-new-york", "name": "Konban", "image_url": "https://s3-media3.fl.yelpcdn.com/bphoto/VQfv5t48krAlCZwQLRYk3Q/o.jpg", "is_closed": false, "url": "https://www.yelp.com/biz/konban-new-york?adjust_creative=uVENxkrx5WKqWp2fTdTrzg&utm_campaign=yelp_api_v3&utm_medium=api_v3_business_search&utm_source=uVENxkrx5WKqWp2fTdTrzg", "review_count": 76, "categories": [{"alias": "izakaya", "title": "Izakaya"}], "rating": 4.4, "coordinates": {"latitude": 40.741979, "longitude": -74.001592}, "transactions": [], "location": {"address1": "311 W 17th St", "address2": "", "address3": null, "city": "New York", "zip_code": "10011", "country": "US", "state": "NY", "display_address": ["311 W 17th St", "New York, NY 10011"]}, "phone": "+19176756070", "display_phone": "(917) 675-6070", "distance": 2805.4603590726133}, {"id": "LMyvruexOQzzHQrAgbdqiA", "alias": "nowon-east-village-new-york-3", "name": "Nowon East Village ", "image_url": "https://s3-media1.fl.yelpcdn.com/bphoto/bmkp5a1migILFvxfNVwEuQ/o.jpg", "is_closed": false, "url": "https://www.yelp.com/biz/nowon-east-village-new-york-3?adjust_creative=uVENxkrx5WKqWp2fTdTrzg&utm_campaign=yelp_api_v3&utm_medium=api_v3_business_search&utm_source=uVENxkrx5WKqWp2fTdTrzg", "review_count": 336, "categories": [{"alias": "korean", "title": "Korean"}, {"alias": "newamerican", "title": "New American"}, {"alias": "gastropubs", "title": "Gastropubs"}], "rating": 4.4, "coordinates": {"latitude": 40.72532, "longitude": -73.98334}, "transactions": ["delivery", "pickup"], "price": "$$$", "location": {"address1": "507 East 6th St", "address2": null, "address3": "", "city": "New York", "zip_code": "10009", "country": "US", "state": "NY", "display_address": ["507 East 6th St", "New York, NY 10009"]}, "phone": "+16466923867", "display_phone": "(646) 692-3867", "distance": 3897.0207609731287}, {"id": "tyWsQg_uifDlTkIgGUNp0g", "alias": "octo-new-york", "name": "Octo", "image_url": "https://s3-media1.fl.yelpcdn.com/bphoto/ZcR5V58TMLk5xMoqj_ONnQ/o.jpg", "is_closed": false, "url": "https://www.yelp.com/biz/octo-new-york?adjust_creative=uVENxkrx5WKqWp2fTdTrzg&utm_campaign=yelp_api_v3&utm_medium=api_v3_business_search&utm_source=uVENxkrx5WKqWp2fTdTrzg", "review_count": 50, "categories": [{"alias": "korean", "title": "Korean"}, {"alias": "asianfusion", "title": "Asian Fusion"}, {"alias": "cocktailbars", "title": "Cocktail Bars"}], "rating": 4.0, "coordinates": {"latitude": 40.74780176753274, "longitude": -73.9848377}, "transactions": [], "location": {"address1": "1 E 33rd St", "address2": null, "address3": "", "city": "New York", "zip_code": "10016", "country": "US", "state": "NY", "display_address": ["1 E 33rd St", "New York, NY 10016"]}, "phone": "+16468337864", "display_phone": "(646) 833-7864", "distance": 1479.903799020236}, {"id": "LSTcQPMmoSdd68zur-aNdw", "alias": "itaewon-pocha-new-york", "name": "Itaewon Pocha", "image_url": "https://s3-media3.fl.yelpcdn.com/bphoto/rY3OBdIvcSUWRHEm5JqFzQ/o.jpg", "is_closed": false, "url": "https://www.yelp.com/biz/itaewon-pocha-new-york?adjust_creative=uVENxkrx5WKqWp2fTdTrzg&utm_campaign=yelp_api_v3&utm_medium=api_v3_business_search&utm_source=uVENxkrx5WKqWp2fTdTrzg", "review_count": 299, "categories": [{"alias": "gastropubs", "title": "Gastropubs"}, {"alias": "korean", "title": "Korean"}], "rating": 4.2, "coordinates": {"latitude": 40.7475125111924, "longitude": -73.9867554408843}, "transactions": ["restaurant_reservation", "delivery"], "price": "$$", "location": {"address1": "28 W 32nd St", "address2": "Fl 2", "address3": null, "city": "New York", "zip_code": "10001", "country": "US", "state": "NY", "display_address": ["28 W 32nd St", "Fl 2", "New York, NY 10001"]}, "phone": "+12129672228", "display_phone": "(212) 967-2228", "distance": 1574.3231375209855}, {"id": "_jVOqHgcLxAOyA6uJE5Llg", "alias": "koba-korean-bbq-new-york-2", "name": "KOBA Korean BBQ", "image_url": "https://s3-media3.fl.yelpcdn.com/bphoto/RKRie6UKbcopuONNjE0yCw/o.jpg", "is_closed": false, "url": "https://www.yelp.com/biz/koba-korean-bbq-new-york-2?adjust_creative=uVENxkrx5WKqWp2fTdTrzg&utm_campaign=yelp_api_v3&utm_medium=api_v3_business_search&utm_source=uVENxkrx5WKqWp2fTdTrzg", "review_count": 123, "categories": [{"alias": "korean", "title": "Korean"}, {"alias": "bbq", "title": "Barbeque"}, {"alias": "hotdogs", "title": "Fast Food"}], "rating": 4.7, "coordinates": {"latitude": 40.7593004088879, "longitude": -73.9685673}, "transactions": ["delivery", "pickup"], "price": "$$", "location": {"address1": "918 3rd Ave", "address2": null, "address3": "", "city": "New York", "zip_code": "10022", "country": "US", "state": "NY", "display_address": ["918 3rd Ave", "New York, NY 10022"]}, "phone": "+19174091410", "display_phone": "(917) 409-1410", "distance": 842.7690578037686}, {"id": "fSfECAGJr6h6cbJ22mmv1g", "alias": "ongi-new-york", "name": "ONGI", "image_url": "https://s3-media3.fl.yelpcdn.com/bphoto/KxkoYBenFCER2KsKxDztPQ/o.jpg", "is_closed": false, "url": "https://www.yelp.com/biz/ongi-new-york?adjust_creative=uVENxkrx5WKqWp2fTdTrzg&utm_campaign=yelp_api_v3&utm_medium=api_v3_business_search&utm_source=uVENxkrx5WKqWp2fTdTrzg", "review_count": 48, "categories": [{"alias": "korean", "title": "Korean"}], "rating": 4.4, "coordinates": {"latitude": 40.750009, "longitude": -73.975406}, "transactions": ["delivery", "pickup"], "price": "$$", "location": {"address1": "630 3rd Ave", "address2": null, "address3": "", "city": "New York", "zip_code": "10017", "country": "US", "state": "NY", "display_address": ["630 3rd Ave", "New York, NY 10017"]}, "phone": "+16466091738", "display_phone": "(646) 609-1738", "distance": 1163.6706027821142}, {"id": "Au1AcsukhrbUfn6oit8tZw", "alias": "kochi-new-york", "name": "Kochi", "image_url": "https://s3-media1.fl.yelpcdn.com/bphoto/5TN_divbz8tA74cUtYgBeQ/o.jpg", "is_closed": false, "url": "https://www.yelp.com/biz/kochi-new-york?adjust_creative=uVENxkrx5WKqWp2fTdTrzg&utm_campaign=yelp_api_v3&utm_medium=api_v3_business_search&utm_source=uVENxkrx5WKqWp2fTdTrzg", "review_count": 452, "categories": [{"alias": "korean", "title": "Korean"}, {"alias": "venues", "title": "Venues & Event Spaces"}, {"alias": "wine_bars", "title": "Wine Bars"}], "rating": 4.5, "coordinates": {"latitude": 40.76201, "longitude": -73.99351}, "transactions": ["delivery"], "price": "$$$$", "location": {"address1": "652 10th Ave", "address2": null, "address3": "", "city": "New York", "zip_code": "10036", "country": "US", "state": "NY", "display_address": ["652 10th Ave", "New York, NY 10036"]}, "phone": "+16464787308", "display_phone": "(646) 478-7308", "distance": 1278.8711804207628}, {"id": "OFc7aHP1chwqXTgtYtbJzQ", "alias": "naro-new-york", "name": "NARO", "image_url": "https://s3-media1.fl.yelpcdn.com/bphoto/h2mbSNljLbhTJphpgdOb4Q/o.jpg", "is_closed": false, "url": "https://www.yelp.com/biz/naro-new-york?adjust_creative=uVENxkrx5WKqWp2fTdTrzg&utm_campaign=yelp_api_v3&utm_medium=api_v3_business_search&utm_source=uVENxkrx5WKqWp2fTdTrzg", "review_count": 64, "categories": [{"alias": "korean", "title": "Korean"}], "rating": 4.2, "coordinates": {"latitude": 40.75810545447859, "longitude": -73.97785309615003}, "transactions": [], "price": "$$$$", "location": {"address1": "610 5th Ave", "address2": "", "address3": "", "city": "New York", "zip_code": "10020", "country": "US", "state": "NY", "display_address": ["610 5th Ave", "New York, NY 10020"]}, "phone": "+12122020206", "display_phone": "(212) 202-0206", "distance": 240.81267277169349}, {"id": "wnMR84uqx57N4OA2OlELMw", "alias": "lims-kitchen-new-york-3", "name": "Lim's Kitchen", "image_url": "https://s3-media3.fl.yelpcdn.com/bphoto/bTtpmtkA3RuQ_yGmE6xAKQ/o.jpg", "is_closed": false, "url": "https://www.yelp.com/biz/lims-kitchen-new-york-3?adjust_creative=uVENxkrx5WKqWp2fTdTrzg&utm_campaign=yelp_api_v3&utm_medium=api_v3_business_search&utm_source=uVENxkrx5WKqWp2fTdTrzg", "review_count": 15, "categories": [{"alias": "korean", "title": "Korean"}, {"alias": "chicken_wings", "title": "Chicken Wings"}, {"alias": "bars", "title": "Bars"}], "rating": 4.9, "coordinates": {"latitude": 40.748636, "longitude": -73.973922}, "transactions": ["delivery", "pickup"], "location": {"address1": "242 E 40th St", "address2": null, "address3": "", "city": "New York", "zip_code": "10016", "country": "US", "state": "NY", "display_address": ["242 E 40th St", "New York, NY 10016"]}, "phone": "+16464100448", "display_phone": "(646) 410-0448", "distance": 1342.381395093724}, {"id": "WUc3CA6S8OjH3kiqv3eFOA", "alias": "sobak-new-york-2", "name": "Sobak", "image_url": "https://s3-media4.fl.yelpcdn.com/bphoto/jIzMOv8F8L5Yk1E-1KYQtg/o.jpg", "is_closed": false, "url": "https://www.yelp.com/biz/sobak-new-york-2?adjust_creative=uVENxkrx5WKqWp2fTdTrzg&utm_campaign=yelp_api_v3&utm_medium=api_v3_business_search&utm_source=uVENxkrx5WKqWp2fTdTrzg", "review_count": 22, "categories": [{"alias": "korean", "title": "Korean"}], "rating": 4.9, "coordinates": {"latitude": 40.71497047687499, "longitude": -73.99158544320115}, "transactions": [], "price": "$$", "location": {"address1": "51B Canal St", "address2": "", "address3": null, "city": "New York", "zip_code": "10002", "country": "US", "state": "NY", "display_address": ["51B Canal St", "New York, NY 10002"]}, "phone": "", "display_phone": "", "distance": 5150.323128419603}, {"id": "8dDYORrWQX5xWa1kXYaOdw", "alias": "ahjae-gookbap-palisades-park", "name": "Ahjae Gookbap", "image_url": "https://s3-media1.fl.yelpcdn.com/bphoto/m4Fab1U1lFP40JB043AI4A/o.jpg", "is_closed": false, "url": "https://www.yelp.com/biz/ahjae-gookbap-palisades-park?adjust_creative=uVENxkrx5WKqWp2fTdTrzg&utm_campaign=yelp_api_v3&utm_medium=api_v3_business_search&utm_source=uVENxkrx5WKqWp2fTdTrzg", "review_count": 85, "categories": [{"alias": "korean", "title": "Korean"}], "rating": 4.7, "coordinates": {"latitude": 40.849404, "longitude": -73.997003}, "transactions": ["delivery", "pickup"], "price": "$$", "location": {"address1": "339 Broad Ave", "address2": null, "address3": "", "city": "Palisades Park", "zip_code": "07650", "country": "US", "state": "NJ", "display_address": ["339 Broad Ave", "Palisades Park, NJ 07650"]}, "phone": "+12014292449", "display_phone": "(201) 429-2449", "distance": 10039.671688117565}, {"id": "LbuBN_aP9GW_Y0lT1et5Yg", "alias": "bulbap-grill-new-york", "name": "Bulbap Grill", "image_url": "https://s3-media2.fl.yelpcdn.com/bphoto/hTRURSNiFJOkqdJd062Gsg/o.jpg", "is_closed": false, "url": "https://www.yelp.com/biz/bulbap-grill-new-york?adjust_creative=uVENxkrx5WKqWp2fTdTrzg&utm_campaign=yelp_api_v3&utm_medium=api_v3_business_search&utm_source=uVENxkrx5WKqWp2fTdTrzg", "review_count": 68, "categories": [{"alias": "korean", "title": "Korean"}, {"alias": "asianfusion", "title": "Asian Fusion"}], "rating": 4.8, "coordinates": {"latitude": 40.76508, "longitude": -73.99128}, "transactions": ["delivery", "pickup"], "location": {"address1": "746 10th Ave", "address2": "Fl 1", "address3": "", "city": "New York", "zip_code": "10019", "country": "US", "state": "NY", "display_address": ["746 10th Ave", "Fl 1", "New York, NY 10019"]}, "phone": "+16464787567", "display_phone": "(646) 478-7567", "distance": 1201.510374622982}, {"id": "pcb8yK9_28uWz5CyokjwSg", "alias": "bangia-new-york-2", "name": "Bangia", "image_url": "https://s3-media1.fl.yelpcdn.com/bphoto/Z7-PawtsYLSFAz5EYeqkDg/o.jpg", "is_closed": false, "url": "https://www.yelp.com/biz/bangia-new-york-2?adjust_creative=uVENxkrx5WKqWp2fTdTrzg&utm_campaign=yelp_api_v3&utm_medium=api_v3_business_search&utm_source=uVENxkrx5WKqWp2fTdTrzg", "review_count": 559, "categories": [{"alias": "korean", "title": "Korean"}, {"alias": "gastropubs", "title": "Gastropubs"}], "rating": 4.0, "coordinates": {"latitude": 40.746854, "longitude": -73.9845201}, "transactions": ["delivery", "pickup"], "price": "$$", "location": {"address1": "11 E 32nd St", "address2": "Lower Lever", "address3": "", "city": "New York", "zip_code": "10016", "country": "US", "state": "NY", "display_address": ["11 E 32nd St", "Lower Lever", "New York, NY 10016"]}, "phone": "+12126796790", "display_phone": "(212) 679-6790", "distance": 1569.8108165650674}]