[{"id": "Xjswj531-FkRZPpcccU6kQ", "alias": "vida-verde-new-york", "name": "Vida Verde", "image_url": "https://s3-media2.fl.yelpcdn.com/bphoto/7GRTlHLkohNPrnNVETi1IQ/o.jpg", "is_closed": false, "url": "https://www.yelp.com/biz/vida-verde-new-york?adjust_creative=uVENxkrx5WKqWp2fTdTrzg&utm_campaign=yelp_api_v3&utm_medium=api_v3_business_search&utm_source=uVENxkrx5WKqWp2fTdTrzg", "review_count": 1636, "categories": [{"alias": "cocktailbars", "title": "Cocktail Bars"}, {"alias": "mexican", "title": "Mexican"}, {"alias": "venues", "title": "Venues & Event Spaces"}], "rating": 4.3, "coordinates": {"latitude": 40.7649503286729, "longitude": -73.9828372257363}, "transactions": ["pickup", "delivery"], "price": "$$", "location": {"address1": "248 W 55th St", "address2": "", "address3": null, "city": "New York", "zip_code": "10019", "country": "US", "state": "NY", "display_address": ["248 W 55th St", "New York, NY 10019"]}, "phone": "+16466570565", "display_phone": "(646) 657-0565", "distance": 648.8994329891642}, {"id": "6Ct7OeTRn4caY9g0swFBsw", "alias": "la-contenta-new-york", "name": "La Contenta", "image_url": "https://s3-media2.fl.yelpcdn.com/bphoto/FwZAyPgdKdPGQ8aAGKh3-w/o.jpg", "is_closed": false, "url": "https://www.yelp.com/biz/la-contenta-new-york?adjust_creative=uVENxkrx5WKqWp2fTdTrzg&utm_campaign=yelp_api_v3&utm_medium=api_v3_business_search&utm_source=uVENxkrx5WKqWp2fTdTrzg", "review_count": 930, "categories": [{"alias": "mexican", "title": "Mexican"}, {"alias": "bars", "title": "Bars"}, {"alias": "breakfast_brunch", "title": "Breakfast & Brunch"}], "rating": 4.5, "coordinates": {"latitude": 40.71873, "longitude": -73.98691}, "transactions": ["pickup", "delivery"], "price": "$$", "location": {"address1": "102 Norfolk St", "address2": "", "address3": "", "city": "New York", "zip_code": "10002", "country": "US", "state": "NY", "display_address": ["102 Norfolk St", "New York, NY 10002"]}, "phone": "+12124324180", "display_phone": "(212) 432-4180", "distance": 4661.243058751872}, {"id": "Wx6lMnEh7dCmX-9PQF1Ifw", "alias": "toloache-50-new-york", "name": "Toloache 50", "image_url": "https://s3-media4.fl.yelpcdn.com/bphoto/m5yGUnpSxMB0KaxgwwXMQA/o.jpg", "is_closed": false, "url": "https://www.yelp.com/biz/toloache-50-new-york?adjust_creative=uVENxkrx5WKqWp2fTdTrzg&utm_campaign=yelp_api_v3&utm_medium=api_v3_business_search&utm_source=uVENxkrx5WKqWp2fTdTrzg", "review_count": 2283, "categories": [{"alias": "mexican", "title": "Mexican"}], "rating": 4.0, "coordinates": {"latitude": 40.762227, "longitude": -73.9856178382696}, "transactions": ["pickup", "delivery"], "price": "$$$", "location": {"address1": "251 West 50th St", "address2": "", "address3": "", "city": "New York", "zip_code": "10012", "country": "US", "state": "NY", "display_address": ["251 West 50th St", "New York, NY 10012"]}, "phone": "+12125811818", "display_phone": "(212) 581-1818", "distance": 639.8465280145972}, {"id": "MaoCNdHni6MLjM9iYQqHcg", "alias": "frida-midtown-new-york", "name": "Frida Midtown", "image_url": "https://s3-media3.fl.yelpcdn.com/bphoto/zxU3h4lddLSTqKrd24k6EA/o.jpg", "is_closed": false, "url": "https://www.yelp.com/biz/frida-midtown-new-york?adjust_creative=uVENxkrx5WKqWp2fTdTrzg&utm_campaign=yelp_api_v3&utm_medium=api_v3_business_search&utm_source=uVENxkrx5WKqWp2fTdTrzg", "review_count": 184, "categories": [{"alias": "mexican", "title": "Mexican"}, {"alias": "peruvian", "title": "Peruvian"}, {"alias": "cocktailbars", "title": "Cocktail Bars"}], "rating": 4.5, "coordinates": {"latitude": 40.75667, "longitude": -73.969168}, "transactions": ["pickup", "restaurant_reservation", "delivery"], "price": "$$$", "location": {"address1": "214 E 52nd St", "address2": null, "address3": "", "city": "New York", "zip_code": "10022", "country": "US", "state": "NY", "display_address": ["214 E 52nd St", "New York, NY 10022"]}, "phone": "+12126885200", "display_phone": "(212) 688-5200", "distance": 879.8566314720069}, {"id": "DFRpXRHjOHBxYHiuvwaEQQ", "alias": "rosa-mexicano-new-york-6", "name": "Rosa Mexicano", "image_url": "https://s3-media2.fl.yelpcdn.com/bphoto/j2dxKQ3gYtsCxg0YdlCkwA/o.jpg", "is_closed": false, "url": "https://www.yelp.com/biz/rosa-mexicano-new-york-6?adjust_creative=uVENxkrx5WKqWp2fTdTrzg&utm_campaign=yelp_api_v3&utm_medium=api_v3_business_search&utm_source=uVENxkrx5WKqWp2fTdTrzg", "review_count": 1562, "categories": [{"alias": "mexican", "title": "Mexican"}], "rating": 3.5, "coordinates": {"latitude": 40.77115637915222, "longitude": -73.9831131}, "transactions": ["pickup", "delivery"], "price": "$$", "location": {"address1": "61 Columbus Ave", "address2": "", "address3": "", "city": "New York", "zip_code": "10023", "country": "US", "state": "NY", "display_address": ["61 Columbus Ave", "New York, NY 10023"]}, "phone": "+12129777700", "display_phone": "(212) 977-7700", "distance": 1277.1492519813978}, {"id": "7Yh4Zp-l3is-4V9MrDoAIw", "alias": "lolita-new-york", "name": "Lolita", "image_url": "https://s3-media2.fl.yelpcdn.com/bphoto/A4Hlb509hhq_SGQZO5o8eQ/o.jpg", "is_closed": false, "url": "https://www.yelp.com/biz/lolita-new-york?adjust_creative=uVENxkrx5WKqWp2fTdTrzg&utm_campaign=yelp_api_v3&utm_medium=api_v3_business_search&utm_source=uVENxkrx5WKqWp2fTdTrzg", "review_count": 8, "categories": [{"alias": "cocktailbars", "title": "Cocktail Bars"}, {"alias": "mexican", "title": "Mexican"}], "rating": 4.5, "coordinates": {"latitude": 40.756371412646445, "longitude": -73.9811027}, "transactions": [], "location": {"address1": "45 W 45th St", "address2": "", "address3": null, "city": "New York", "zip_code": "10036", "country": "US", "state": "NY", "display_address": ["45 W 45th St", "New York, NY 10036"]}, "phone": "+12123890050", "display_phone": "(212) 389-0050", "distance": 480.30584958375255}, {"id": "RUsot7ERPbYA_wOKMlVpAQ", "alias": "azule-cantina-new-york", "name": "Azule Cantina", "image_url": "https://s3-media1.fl.yelpcdn.com/bphoto/YTmcpaMcmAEGaoJZK5E7FQ/o.jpg", "is_closed": false, "url": "https://www.yelp.com/biz/azule-cantina-new-york?adjust_creative=uVENxkrx5WKqWp2fTdTrzg&utm_campaign=yelp_api_v3&utm_medium=api_v3_business_search&utm_source=uVENxkrx5WKqWp2fTdTrzg", "review_count": 19, "categories": [{"alias": "newmexican", "title": "New Mexican Cuisine"}, {"alias": "tacos", "title": "Tacos"}], "rating": 4.1, "coordinates": {"latitude": 40.7606700654272, "longitude": -73.97805009037256}, "transactions": ["pickup", "delivery"], "location": {"address1": "31 W 52nd St", "address2": "", "address3": null, "city": "New York", "zip_code": "10019", "country": "US", "state": "NY", "display_address": ["31 W 52nd St", "New York, NY 10019"]}, "phone": "+16463604001", "display_phone": "(646) 360-4001", "distance": 63.24310495371436}, {"id": "BsDu_kup3lJ2QHb-Botpeg", "alias": "covacha-new-york", "name": "Covacha", "image_url": "https://s3-media4.fl.yelpcdn.com/bphoto/a_SEDU6MllKN7i5GcIOKIw/o.jpg", "is_closed": false, "url": "https://www.yelp.com/biz/covacha-new-york?adjust_creative=uVENxkrx5WKqWp2fTdTrzg&utm_campaign=yelp_api_v3&utm_medium=api_v3_business_search&utm_source=uVENxkrx5WKqWp2fTdTrzg", "review_count": 206, "categories": [{"alias": "mexican", "title": "Mexican"}], "rating": 4.1, "coordinates": {"latitude": 40.78110489839311, "longitude": -73.97644500326436}, "transactions": ["pickup", "delivery"], "price": "$$", "location": {"address1": "368 Columbus Ave", "address2": "", "address3": null, "city": "New York", "zip_code": "10023", "country": "US", "state": "NY", "display_address": ["368 Columbus Ave", "New York, NY 10023"]}, "phone": "+12127122929", "display_phone": "(212) 712-2929", "distance": 2329.2977020648163}, {"id": "Ahx8GsuAGUl8TgqCWP7uXw", "alias": "temerario-new-york-2", "name": "Temerario", "image_url": "https://s3-media2.fl.yelpcdn.com/bphoto/amE-z-veF7Kwld_lCNE02A/o.jpg", "is_closed": false, "url": "https://www.yelp.com/biz/temerario-new-york-2?adjust_creative=uVENxkrx5WKqWp2fTdTrzg&utm_campaign=yelp_api_v3&utm_medium=api_v3_business_search&utm_source=uVENxkrx5WKqWp2fTdTrzg", "review_count": 376, "categories": [{"alias": "mexican", "title": "Mexican"}, {"alias": "cocktailbars", "title": "Cocktail Bars"}, {"alias": "breakfast_brunch", "title": "Breakfast & Brunch"}], "rating": 3.9, "coordinates": {"latitude": 40.74347, "longitude": -73.9996}, "transactions": ["pickup", "restaurant_reservation", "delivery"], "price": "$$", "location": {"address1": "198 8th Ave", "address2": "", "address3": "", "city": "New York", "zip_code": "10011", "country": "US", "state": "NY", "display_address": ["198 8th Ave", "New York, NY 10011"]}, "phone": "+12126452100", "display_phone": "(212) 645-2100", "distance": 2574.235445435675}, {"id": "ihzI-4yGesoQuAoIocao8g", "alias": "tacuba-hells-kitchen-new-york", "name": "Tacuba Hell's Kitchen", "image_url": "https://s3-media1.fl.yelpcdn.com/bphoto/swZQbw3CYfGNaMyNJclLgA/o.jpg", "is_closed": false, "url": "https://www.yelp.com/biz/tacuba-hells-kitchen-new-york?adjust_creative=uVENxkrx5WKqWp2fTdTrzg&utm_campaign=yelp_api_v3&utm_medium=api_v3_business_search&utm_source=uVENxkrx5WKqWp2fTdTrzg", "review_count": 827, "categories": [{"alias": "mexican", "title": "Mexican"}, {"alias": "latin", "title": "Latin American"}, {"alias": "tapas", "title": "Tapas Bars"}], "rating": 3.9, "coordinates": {"latitude": 40.76545, "longitude": -73.98729}, "transactions": ["pickup", "delivery"], "price": "$$", "location": {"address1": "802 9th Ave", "address2": "", "address3": "", "city": "New York", "zip_code": "10019", "country": "US", "state": "NY", "display_address": ["802 9th Ave", "New York, NY 10019"]}, "phone": "+12122454500", "display_phone": "(212) 245-4500", "distance": 928.8820007684903}, {"id": "hKkPlYmHoS9Nb_UbGGqx8A", "alias": "street-taco-new-york", "name": "Street Taco", "image_url": "https://s3-media2.fl.yelpcdn.com/bphoto/lIGbCOAX39pz3PIM_FfM4w/o.jpg", "is_closed": false, "url": "https://www.yelp.com/biz/street-taco-new-york?adjust_creative=uVENxkrx5WKqWp2fTdTrzg&utm_campaign=yelp_api_v3&utm_medium=api_v3_business_search&utm_source=uVENxkrx5WKqWp2fTdTrzg", "review_count": 539, "categories": [{"alias": "cocktailbars", "title": "Cocktail Bars"}, {"alias": "tacos", "title": "Tacos"}, {"alias": "beerbar", "title": "Beer Bar"}], "rating": 4.0, "coordinates": {"latitude": 40.7409292, "longitude": -73.98192270000001}, "transactions": ["pickup", "delivery"], "price": "$$", "location": {"address1": "358 3rd Ave", "address2": "", "address3": null, "city": "New York", "zip_code": "10016", "country": "US", "state": "NY", "display_address": ["358 3rd Ave", "New York, NY 10016"]}, "phone": "+16467915413", "display_phone": "(646) 791-5413", "distance": 2163.761470576087}, {"id": "WyiTT3VHjzowMnOnUpZ7TQ", "alias": "empell\u00f3n-new-york-3", "name": "Empell\u00f3n", "image_url": "https://s3-media3.fl.yelpcdn.com/bphoto/ZEtyepMexSM9KF3-rUqeMg/o.jpg", "is_closed": false, "url": "https://www.yelp.com/biz/empell%C3%B3n-new-york-3?adjust_creative=uVENxkrx5WKqWp2fTdTrzg&utm_campaign=yelp_api_v3&utm_medium=api_v3_business_search&utm_source=uVENxkrx5WKqWp2fTdTrzg", "review_count": 452, "categories": [{"alias": "mexican", "title": "Mexican"}, {"alias": "cocktailbars", "title": "Cocktail Bars"}, {"alias": "desserts", "title": "Desserts"}], "rating": 3.9, "coordinates": {"latitude": 40.75972, "longitude": -73.97472}, "transactions": ["pickup", "delivery"], "price": "$$$", "location": {"address1": "510 Madison Ave", "address2": null, "address3": "", "city": "New York", "zip_code": "10022", "country": "US", "state": "NY", "display_address": ["510 Madison Ave", "New York, NY 10022"]}, "phone": "+12123801215", "display_phone": "(212) 380-1215", "distance": 323.1208244812309}, {"id": "rbAxZRKdMoMxeonDTmooFg", "alias": "el-vez-new-york", "name": "El Vez", "image_url": "https://s3-media1.fl.yelpcdn.com/bphoto/LwKnc2nIeLUfSvk4xJyWzQ/o.jpg", "is_closed": false, "url": "https://www.yelp.com/biz/el-vez-new-york?adjust_creative=uVENxkrx5WKqWp2fTdTrzg&utm_campaign=yelp_api_v3&utm_medium=api_v3_business_search&utm_source=uVENxkrx5WKqWp2fTdTrzg", "review_count": 801, "categories": [{"alias": "mexican", "title": "Mexican"}, {"alias": "breakfast_brunch", "title": "Breakfast & Brunch"}], "rating": 3.6, "coordinates": {"latitude": 40.7147356376792, "longitude": -74.015635}, "transactions": ["pickup", "delivery"], "price": "$$", "location": {"address1": "259 Vesey St", "address2": "", "address3": "", "city": "New York", "zip_code": "10282", "country": "US", "state": "NY", "display_address": ["259 Vesey St", "New York, NY 10282"]}, "phone": "+12122332500", "display_phone": "(212) 233-2500", "distance": 5946.651880445217}, {"id": "twQFM-8T_Y4yYIqeEPk4XQ", "alias": "casa-carmen-new-york", "name": "Casa Carmen", "image_url": "https://s3-media2.fl.yelpcdn.com/bphoto/KWOrWCrVoQLZuxIv42l-Hw/o.jpg", "is_closed": false, "url": "https://www.yelp.com/biz/casa-carmen-new-york?adjust_creative=uVENxkrx5WKqWp2fTdTrzg&utm_campaign=yelp_api_v3&utm_medium=api_v3_business_search&utm_source=uVENxkrx5WKqWp2fTdTrzg", "review_count": 56, "categories": [{"alias": "mexican", "title": "Mexican"}], "rating": 3.9, "coordinates": {"latitude": 40.718705771624705, "longitude": -74.00606353625375}, "transactions": ["pickup", "delivery"], "location": {"address1": "114 Franklin St", "address2": "", "address3": null, "city": "New York", "zip_code": "10013", "country": "US", "state": "NY", "display_address": ["114 Franklin St", "New York, NY 10013"]}, "phone": "+19175405500", "display_phone": "(917) 540-5500", "distance": 5166.860647828371}, {"id": "dYWjNK07igws9jFNgQmhng", "alias": "rosa-mexicano-new-york-3", "name": "Rosa Mexicano", "image_url": "https://s3-media2.fl.yelpcdn.com/bphoto/plS7hoISQe1qsITl1hP7TA/o.jpg", "is_closed": false, "url": "https://www.yelp.com/biz/rosa-mexicano-new-york-3?adjust_creative=uVENxkrx5WKqWp2fTdTrzg&utm_campaign=yelp_api_v3&utm_medium=api_v3_business_search&utm_source=uVENxkrx5WKqWp2fTdTrzg", "review_count": 1731, "categories": [{"alias": "mexican", "title": "Mexican"}], "rating": 3.5, "coordinates": {"latitude": 40.738285, "longitude": -73.990807}, "transactions": ["pickup", "delivery"], "price": "$$", "location": {"address1": "9 E 18th St", "address2": "", "address3": "", "city": "New York", "zip_code": "10003", "country": "US", "state": "NY", "display_address": ["9 E 18th St", "New York, NY 10003"]}, "phone": "+12125333350", "display_phone": "(212) 533-3350", "distance": 2643.445029824141}, {"id": "PqqnNrUtU7XTKQvUM4cyqQ", "alias": "bar-verde-new-york", "name": "Bar Verde", "image_url": "https://s3-media1.fl.yelpcdn.com/bphoto/ZmPLMPMSviGQXTyUSJeJrw/o.jpg", "is_closed": false, "url": "https://www.yelp.com/biz/bar-verde-new-york?adjust_creative=uVENxkrx5WKqWp2fTdTrzg&utm_campaign=yelp_api_v3&utm_medium=api_v3_business_search&utm_source=uVENxkrx5WKqWp2fTdTrzg", "review_count": 455, "categories": [{"alias": "mexican", "title": "Mexican"}, {"alias": "vegan", "title": "Vegan"}, {"alias": "gluten_free", "title": "Gluten-Free"}], "rating": 4.4, "coordinates": {"latitude": 40.7260849061034, "longitude": -73.9897361397743}, "transactions": ["pickup", "delivery"], "price": "$$", "location": {"address1": "65 2nd Ave", "address2": "", "address3": null, "city": "New York", "zip_code": "10003", "country": "US", "state": "NY", "display_address": ["65 2nd Ave", "New York, NY 10003"]}, "phone": "+12127776965", "display_phone": "(212) 777-6965", "distance": 3911.344763787452}, {"id": "7ERwg_4Kiaq1ezKTSSv7pg", "alias": "taqueria-86-new-york", "name": "Taqueria 86", "image_url": "https://s3-media2.fl.yelpcdn.com/bphoto/LmE3eYuGQf8r8BYoXkXYhg/o.jpg", "is_closed": false, "url": "https://www.yelp.com/biz/taqueria-86-new-york?adjust_creative=uVENxkrx5WKqWp2fTdTrzg&utm_campaign=yelp_api_v3&utm_medium=api_v3_business_search&utm_source=uVENxkrx5WKqWp2fTdTrzg", "review_count": 125, "categories": [{"alias": "mexican", "title": "Mexican"}], "rating": 4.5, "coordinates": {"latitude": 40.793, "longitude": -73.97214}, "transactions": ["pickup", "delivery"], "price": "$$", "location": {"address1": "210 W 94th St", "address2": null, "address3": "", "city": "New York", "zip_code": "10025", "country": "US", "state": "NY", "display_address": ["210 W 94th St", "New York, NY 10025"]}, "phone": "+19176757727", "display_phone": "(917) 675-7727", "distance": 3676.6787748335178}, {"id": "sTu5z5HUcIYykg97HHj8xA", "alias": "el-centro-new-york", "name": "El Centro", "image_url": "https://s3-media4.fl.yelpcdn.com/bphoto/slZaYlmA64T2Jn6gZILScw/o.jpg", "is_closed": false, "url": "https://www.yelp.com/biz/el-centro-new-york?adjust_creative=uVENxkrx5WKqWp2fTdTrzg&utm_campaign=yelp_api_v3&utm_medium=api_v3_business_search&utm_source=uVENxkrx5WKqWp2fTdTrzg", "review_count": 915, "categories": [{"alias": "mexican", "title": "Mexican"}, {"alias": "bars", "title": "Bars"}], "rating": 3.8, "coordinates": {"latitude": 40.76602, "longitude": -73.98688}, "transactions": ["delivery"], "price": "$$", "location": {"address1": "824 9th Ave", "address2": null, "address3": "", "city": "New York", "zip_code": "10019", "country": "US", "state": "NY", "display_address": ["824 9th Ave", "New York, NY 10019"]}, "phone": "+19174091171", "display_phone": "(917) 409-1171", "distance": 952.7855207932628}, {"id": "2u8T56A4qu-MjeuT-v7s_g", "alias": "casa-bocado-new-york", "name": "Casa Bocado", "image_url": "https://s3-media2.fl.yelpcdn.com/bphoto/V9IJ6YuSb6E6G2PYJ7K1EA/o.jpg", "is_closed": false, "url": "https://www.yelp.com/biz/casa-bocado-new-york?adjust_creative=uVENxkrx5WKqWp2fTdTrzg&utm_campaign=yelp_api_v3&utm_medium=api_v3_business_search&utm_source=uVENxkrx5WKqWp2fTdTrzg", "review_count": 124, "categories": [{"alias": "mexican", "title": "Mexican"}, {"alias": "latin", "title": "Latin American"}, {"alias": "cocktailbars", "title": "Cocktail Bars"}], "rating": 4.5, "coordinates": {"latitude": 40.71958, "longitude": -73.99484}, "transactions": ["delivery"], "location": {"address1": "341 Broome St", "address2": null, "address3": "", "city": "New York", "zip_code": "10013", "country": "US", "state": "NY", "display_address": ["341 Broome St", "New York, NY 10013"]}, "phone": "+12122047502", "display_phone": "(212) 204-7502", "distance": 4729.396988796907}, {"id": "xWLSJOiN1mMRHmBmHyjAfw", "alias": "mad-dog-and-beans-mexican-cantina-new-york", "name": "Mad Dog & Beans Mexican Cantina", "image_url": "https://s3-media1.fl.yelpcdn.com/bphoto/YE_aFUDdu5GpWMVj7IUK4A/o.jpg", "is_closed": false, "url": "https://www.yelp.com/biz/mad-dog-and-beans-mexican-cantina-new-york?adjust_creative=uVENxkrx5WKqWp2fTdTrzg&utm_campaign=yelp_api_v3&utm_medium=api_v3_business_search&utm_source=uVENxkrx5WKqWp2fTdTrzg", "review_count": 686, "categories": [{"alias": "mexican", "title": "Mexican"}], "rating": 3.9, "coordinates": {"latitude": 40.750811592019275, "longitude": -73.9819335}, "transactions": ["pickup", "restaurant_reservation", "delivery"], "price": "$$", "location": {"address1": "5 E 38th St", "address2": "", "address3": null, "city": "New York", "zip_code": "10016", "country": "US", "state": "NY", "display_address": ["5 E 38th St", "New York, NY 10016"]}, "phone": "+16469985722", "display_phone": "(646) 998-5722", "distance": 1084.850813406526}, {"id": "7bD22UAtH56ikWYslOSIQg", "alias": "calexico-upper-east-side-new-york-2", "name": "Calexico - Upper East Side", "image_url": "https://s3-media2.fl.yelpcdn.com/bphoto/rcCCmnP4qqL-LCb5CDq2eg/o.jpg", "is_closed": false, "url": "https://www.yelp.com/biz/calexico-upper-east-side-new-york-2?adjust_creative=uVENxkrx5WKqWp2fTdTrzg&utm_campaign=yelp_api_v3&utm_medium=api_v3_business_search&utm_source=uVENxkrx5WKqWp2fTdTrzg", "review_count": 871, "categories": [{"alias": "salad", "title": "Salad"}, {"alias": "breakfast_brunch", "title": "Breakfast & Brunch"}, {"alias": "tacos", "title": "Tacos"}], "rating": 3.8, "coordinates": {"latitude": 40.77259, "longitude": -73.95588}, "transactions": ["pickup", "delivery"], "price": "$$", "location": {"address1": "1491 2nd Ave", "address2": "", "address3": "", "city": "New York", "zip_code": "10075", "country": "US", "state": "NY", "display_address": ["1491 2nd Ave", "New York, NY 10075"]}, "phone": "+13479675955", "display_phone": "(347) 967-5955", "distance": 2349.926469716569}, {"id": "iPc-zPgcpgeSo76xl5Jbpw", "alias": "the-maze-new-york-3", "name": "The Maze", "image_url": "https://s3-media2.fl.yelpcdn.com/bphoto/R4seml-sx0xQk2cwg9c2rA/o.jpg", "is_closed": false, "url": "https://www.yelp.com/biz/the-maze-new-york-3?adjust_creative=uVENxkrx5WKqWp2fTdTrzg&utm_campaign=yelp_api_v3&utm_medium=api_v3_business_search&utm_source=uVENxkrx5WKqWp2fTdTrzg", "review_count": 728, "categories": [{"alias": "korean", "title": "Korean"}, {"alias": "cocktailbars", "title": "Cocktail Bars"}, {"alias": "mexican", "title": "Mexican"}], "rating": 3.9, "coordinates": {"latitude": 40.747664, "longitude": -73.987245}, "transactions": ["pickup", "delivery"], "price": "$$", "location": {"address1": "32 W 32nd St", "address2": "Fl 3", "address3": "", "city": "New York", "zip_code": "10001", "country": "US", "state": "NY", "display_address": ["32 W 32nd St", "Fl 3", "New York, NY 10001"]}, "phone": "+16469187519", "display_phone": "(646) 918-7519", "distance": 1582.992242718136}, {"id": "tvqtAjAyc7dplVVwhw3VZQ", "alias": "la-contenta-oeste-new-york", "name": "La Contenta Oeste", "image_url": "https://s3-media4.fl.yelpcdn.com/bphoto/REnuRJEbMXWlGRRFv6KPfQ/o.jpg", "is_closed": false, "url": "https://www.yelp.com/biz/la-contenta-oeste-new-york?adjust_creative=uVENxkrx5WKqWp2fTdTrzg&utm_campaign=yelp_api_v3&utm_medium=api_v3_business_search&utm_source=uVENxkrx5WKqWp2fTdTrzg", "review_count": 332, "categories": [{"alias": "mexican", "title": "Mexican"}, {"alias": "breakfast_brunch", "title": "Breakfast & Brunch"}, {"alias": "cocktailbars", "title": "Cocktail Bars"}], "rating": 4.2, "coordinates": {"latitude": 40.7352, "longitude": -73.99808}, "transactions": ["pickup", "delivery"], "price": "$$", "location": {"address1": "78 W 11th St", "address2": null, "address3": "", "city": "New York", "zip_code": "10011", "country": "US", "state": "NY", "display_address": ["78 W 11th St", "New York, NY 10011"]}, "phone": "+12125332233", "display_phone": "(212) 533-2233", "distance": 3237.4760740862134}, {"id": "UjBZR0Vyl5zpwDVkOvNceQ", "alias": "casa-carmen-new-york-2", "name": "Casa Carmen", "image_url": "https://s3-media3.fl.yelpcdn.com/bphoto/qPBmzs-4aGGnOjziT1jxmw/o.jpg", "is_closed": false, "url": "https://www.yelp.com/biz/casa-carmen-new-york-2?adjust_creative=uVENxkrx5WKqWp2fTdTrzg&utm_campaign=yelp_api_v3&utm_medium=api_v3_business_search&utm_source=uVENxkrx5WKqWp2fTdTrzg", "review_count": 10, "categories": [{"alias": "mexican", "title": "Mexican"}, {"alias": "wine_bars", "title": "Wine Bars"}, {"alias": "cocktailbars", "title": "Cocktail Bars"}], "rating": 4.8, "coordinates": {"latitude": 40.74071727271747, "longitude": -73.99106050000002}, "transactions": ["pickup", "delivery"], "location": {"address1": "5 W 21st St", "address2": "", "address3": null, "city": "New York", "zip_code": "10010", "country": "US", "state": "NY", "display_address": ["5 W 21st St", "New York, NY 10010"]}, "phone": "+19175405600", "display_phone": "(917) 540-5600", "distance": 2412.4252161566105}, {"id": "xGoSAOhQBNdJMJmPn7CMDQ", "alias": "mexicue-new-york-4", "name": "MEXiCUE", "image_url": "https://s3-media4.fl.yelpcdn.com/bphoto/9awDMhfzm5zAmxkJrg46sg/o.jpg", "is_closed": false, "url": "https://www.yelp.com/biz/mexicue-new-york-4?adjust_creative=uVENxkrx5WKqWp2fTdTrzg&utm_campaign=yelp_api_v3&utm_medium=api_v3_business_search&utm_source=uVENxkrx5WKqWp2fTdTrzg", "review_count": 693, "categories": [{"alias": "mexican", "title": "Mexican"}], "rating": 3.9, "coordinates": {"latitude": 40.754109, "longitude": -73.986015}, "transactions": ["pickup", "delivery"], "price": "$$", "location": {"address1": "1440 Broadway", "address2": null, "address3": "", "city": "New York", "zip_code": "10018", "country": "US", "state": "NY", "display_address": ["1440 Broadway", "New York, NY 10018"]}, "phone": "+13322498600", "display_phone": "(332) 249-8600", "distance": 928.2162543923326}, {"id": "SULHf6nGQ8sK0UpG1XU30w", "alias": "los-tacos-no-1-new-york-3", "name": "Los Tacos No.1", "image_url": "https://s3-media4.fl.yelpcdn.com/bphoto/5wEe4FCwda16knmBHSsX0Q/o.jpg", "is_closed": false, "url": "https://www.yelp.com/biz/los-tacos-no-1-new-york-3?adjust_creative=uVENxkrx5WKqWp2fTdTrzg&utm_campaign=yelp_api_v3&utm_medium=api_v3_business_search&utm_source=uVENxkrx5WKqWp2fTdTrzg", "review_count": 2944, "categories": [{"alias": "tacos", "title": "Tacos"}], "rating": 4.7, "coordinates": {"latitude": 40.7575067, "longitude": -73.9877717}, "transactions": ["delivery"], "price": "$$", "location": {"address1": "229 W 43rd St", "address2": "", "address3": null, "city": "New York", "zip_code": "10036", "country": "US", "state": "NY", "display_address": ["229 W 43rd St", "New York, NY 10036"]}, "phone": "+12125744696", "display_phone": "(212) 574-4696", "distance": 836.9412540165148}, {"id": "L3REPLCvQpMapYPd_fkS-A", "alias": "los-mariscos-new-york", "name": "Los Mariscos", "image_url": "https://s3-media1.fl.yelpcdn.com/bphoto/miAqlvuZ-SEdViMIAbHkeQ/o.jpg", "is_closed": false, "url": "https://www.yelp.com/biz/los-mariscos-new-york?adjust_creative=uVENxkrx5WKqWp2fTdTrzg&utm_campaign=yelp_api_v3&utm_medium=api_v3_business_search&utm_source=uVENxkrx5WKqWp2fTdTrzg", "review_count": 800, "categories": [{"alias": "mexican", "title": "Mexican"}, {"alias": "cocktailbars", "title": "Cocktail Bars"}], "rating": 4.6, "coordinates": {"latitude": 40.74207, "longitude": -74.00565}, "transactions": ["pickup", "delivery"], "price": "$$", "location": {"address1": "409 W 15th St", "address2": "", "address3": null, "city": "New York", "zip_code": "10011", "country": "US", "state": "NY", "display_address": ["409 W 15th St", "New York, NY 10011"]}, "phone": "+12129204986", "display_phone": "(212) 920-4986", "distance": 3049.2994710005573}, {"id": "5WBwvVVZJc90E6O28NAjkQ", "alias": "superbueno-east-village", "name": "Superbueno", "image_url": "https://s3-media4.fl.yelpcdn.com/bphoto/PpRc0oOyGBS11HuZu49sDw/o.jpg", "is_closed": false, "url": "https://www.yelp.com/biz/superbueno-east-village?adjust_creative=uVENxkrx5WKqWp2fTdTrzg&utm_campaign=yelp_api_v3&utm_medium=api_v3_business_search&utm_source=uVENxkrx5WKqWp2fTdTrzg", "review_count": 32, "categories": [{"alias": "mexican", "title": "Mexican"}, {"alias": "cocktailbars", "title": "Cocktail Bars"}], "rating": 4.4, "coordinates": {"latitude": 40.72345312351195, "longitude": -73.9885737}, "transactions": [], "location": {"address1": "13 1st Ave", "address2": "", "address3": null, "city": "East Village", "zip_code": "10003", "country": "US", "state": "NY", "display_address": ["13 1st Ave", "East Village, NY 10003"]}, "phone": "+13478667739", "display_phone": "(347) 866-7739", "distance": 4174.885248167144}, {"id": "IfIyjm4SfORGYPbaAWST3g", "alias": "mexicue-new-york-6", "name": "MEXiCUE", "image_url": "https://s3-media1.fl.yelpcdn.com/bphoto/brTTireZXpRE2UEbSPlYCQ/o.jpg", "is_closed": false, "url": "https://www.yelp.com/biz/mexicue-new-york-6?adjust_creative=uVENxkrx5WKqWp2fTdTrzg&utm_campaign=yelp_api_v3&utm_medium=api_v3_business_search&utm_source=uVENxkrx5WKqWp2fTdTrzg", "review_count": 696, "categories": [{"alias": "mexican", "title": "Mexican"}], "rating": 4.0, "coordinates": {"latitude": 40.743617, "longitude": -73.987867}, "transactions": ["pickup", "delivery"], "price": "$$", "location": {"address1": "225 5th Ave", "address2": "", "address3": "", "city": "New York", "zip_code": "10010", "country": "US", "state": "NY", "display_address": ["225 5th Ave", "New York, NY 10010"]}, "phone": "+13322633200", "display_phone": "(332) 263-3200", "distance": 2007.1773825742137}, {"id": "HjvCwjM0EkFoYo8TFHjfww", "alias": "arre-sinaloa-union-city", "name": "Arre Sinaloa", "image_url": "https://s3-media3.fl.yelpcdn.com/bphoto/_YSAYjKYGE0-iV6PF_fVRw/o.jpg", "is_closed": false, "url": "https://www.yelp.com/biz/arre-sinaloa-union-city?adjust_creative=uVENxkrx5WKqWp2fTdTrzg&utm_campaign=yelp_api_v3&utm_medium=api_v3_business_search&utm_source=uVENxkrx5WKqWp2fTdTrzg", "review_count": 61, "categories": [{"alias": "mexican", "title": "Mexican"}], "rating": 4.8, "coordinates": {"latitude": 40.77804222204433, "longitude": -74.0175949037075}, "transactions": ["pickup", "delivery"], "location": {"address1": "4605 Park Ave", "address2": "", "address3": null, "city": "Union City", "zip_code": "07087", "country": "US", "state": "NJ", "display_address": ["4605 Park Ave", "Union City, NJ 07087"]}, "phone": "+12014309897", "display_phone": "(201) 430-9897", "distance": 3842.9902511930077}, {"id": "9_CEU7Wmvmwlyvqr-PJD6w", "alias": "ofrenda-new-york", "name": "Ofrenda", "image_url": "https://s3-media3.fl.yelpcdn.com/bphoto/n_7KzDvJbYOkJttMRJOWyQ/o.jpg", "is_closed": false, "url": "https://www.yelp.com/biz/ofrenda-new-york?adjust_creative=uVENxkrx5WKqWp2fTdTrzg&utm_campaign=yelp_api_v3&utm_medium=api_v3_business_search&utm_source=uVENxkrx5WKqWp2fTdTrzg", "review_count": 1108, "categories": [{"alias": "mexican", "title": "Mexican"}, {"alias": "breakfast_brunch", "title": "Breakfast & Brunch"}], "rating": 3.9, "coordinates": {"latitude": 40.73391, "longitude": -74.00242}, "transactions": ["pickup", "delivery"], "price": "$$", "location": {"address1": "113 7th Ave S", "address2": "", "address3": "", "city": "New York", "zip_code": "10014", "country": "US", "state": "NY", "display_address": ["113 7th Ave S", "New York, NY 10014"]}, "phone": "+12129242305", "display_phone": "(212) 924-2305", "distance": 3547.395791676911}, {"id": "a2BkT6uUKDpzhLalkksJsg", "alias": "tacombi-upper-east-side-new-york-2", "name": "Tacombi", "image_url": "https://s3-media1.fl.yelpcdn.com/bphoto/kxVZvW4104mvX9beqDFWQA/o.jpg", "is_closed": false, "url": "https://www.yelp.com/biz/tacombi-upper-east-side-new-york-2?adjust_creative=uVENxkrx5WKqWp2fTdTrzg&utm_campaign=yelp_api_v3&utm_medium=api_v3_business_search&utm_source=uVENxkrx5WKqWp2fTdTrzg", "review_count": 168, "categories": [{"alias": "mexican", "title": "Mexican"}], "rating": 4.1, "coordinates": {"latitude": 40.768036983514506, "longitude": -73.96119122060036}, "transactions": ["pickup", "delivery"], "price": "$$", "location": {"address1": "202 E 70th St", "address2": null, "address3": null, "city": "New York", "zip_code": "10021", "country": "US", "state": "NY", "display_address": ["202 E 70th St", "New York, NY 10021"]}, "phone": "+16467264302", "display_phone": "(646) 726-4302", "distance": 1697.5239011406243}, {"id": "1y900NbcusWxwVb01RSdcg", "alias": "bosco-new-york-3", "name": "Bosco", "image_url": "https://s3-media4.fl.yelpcdn.com/bphoto/FuELM8i5j1QGVZmmkg7y0g/o.jpg", "is_closed": false, "url": "https://www.yelp.com/biz/bosco-new-york-3?adjust_creative=uVENxkrx5WKqWp2fTdTrzg&utm_campaign=yelp_api_v3&utm_medium=api_v3_business_search&utm_source=uVENxkrx5WKqWp2fTdTrzg", "review_count": 86, "categories": [{"alias": "cocktailbars", "title": "Cocktail Bars"}, {"alias": "breakfast_brunch", "title": "Breakfast & Brunch"}, {"alias": "tex-mex", "title": "Tex-Mex"}], "rating": 4.4, "coordinates": {"latitude": 40.72882, "longitude": -74.00025}, "transactions": ["pickup", "delivery"], "location": {"address1": "169 Bleecker St", "address2": null, "address3": "", "city": "New York", "zip_code": "10012", "country": "US", "state": "NY", "display_address": ["169 Bleecker St", "New York, NY 10012"]}, "phone": "", "display_phone": "", "distance": 3940.841558481987}, {"id": "TXLtPStqbC3acOpoHWDfYQ", "alias": "sol-mexican-cocina-new-york", "name": "SOL Mexican Cocina", "image_url": "https://s3-media3.fl.yelpcdn.com/bphoto/Vcr5d_t45MkuZaQQxAqwHA/o.jpg", "is_closed": false, "url": "https://www.yelp.com/biz/sol-mexican-cocina-new-york?adjust_creative=uVENxkrx5WKqWp2fTdTrzg&utm_campaign=yelp_api_v3&utm_medium=api_v3_business_search&utm_source=uVENxkrx5WKqWp2fTdTrzg", "review_count": 81, "categories": [{"alias": "mexican", "title": "Mexican"}, {"alias": "bars", "title": "Bars"}, {"alias": "breakfast_brunch", "title": "Breakfast & Brunch"}], "rating": 4.1, "coordinates": {"latitude": 40.743791, "longitude": -73.988494}, "transactions": ["pickup", "delivery"], "location": {"address1": "220 5th Ave", "address2": "", "address3": null, "city": "New York", "zip_code": "10001", "country": "US", "state": "NY", "display_address": ["220 5th Ave", "New York, NY 10001"]}, "phone": "+12126217671", "display_phone": "(212) 621-7671", "distance": 2017.2262816359466}, {"id": "0ksKKrgHt-6xCCHfTlLcoA", "alias": "t\u00e1n-new-york-3", "name": "t\u00e1n", "image_url": "https://s3-media3.fl.yelpcdn.com/bphoto/aBpgBkNQpTGeGAEGaBqJyw/o.jpg", "is_closed": false, "url": "https://www.yelp.com/biz/t%C3%A1n-new-york-3?adjust_creative=uVENxkrx5WKqWp2fTdTrzg&utm_campaign=yelp_api_v3&utm_medium=api_v3_business_search&utm_source=uVENxkrx5WKqWp2fTdTrzg", "review_count": 120, "categories": [{"alias": "latin", "title": "Latin American"}, {"alias": "mexican", "title": "Mexican"}], "rating": 3.9, "coordinates": {"latitude": 40.75502324994503, "longitude": -73.97048579999999}, "transactions": [], "location": {"address1": "209 E 49th St", "address2": null, "address3": "", "city": "New York", "zip_code": "10017", "country": "US", "state": "NY", "display_address": ["209 E 49th St", "New York, NY 10017"]}, "phone": "+19173882248", "display_phone": "(917) 388-2248", "distance": 888.2277577308072}, {"id": "ub2VfE7SRLJABAClzGZp3A", "alias": "tacombi-new-york-17", "name": "Tacombi", "image_url": "https://s3-media3.fl.yelpcdn.com/bphoto/VeoVUggoHbw8RV_Yo4xlig/o.jpg", "is_closed": false, "url": "https://www.yelp.com/biz/tacombi-new-york-17?adjust_creative=uVENxkrx5WKqWp2fTdTrzg&utm_campaign=yelp_api_v3&utm_medium=api_v3_business_search&utm_source=uVENxkrx5WKqWp2fTdTrzg", "review_count": 807, "categories": [{"alias": "mexican", "title": "Mexican"}], "rating": 3.8, "coordinates": {"latitude": 40.74294199970279, "longitude": -73.99112692780066}, "transactions": ["pickup", "delivery"], "price": "$$", "location": {"address1": "30 W 24th St", "address2": "", "address3": "", "city": "New York", "zip_code": "10010", "country": "US", "state": "NY", "display_address": ["30 W 24th St", "New York, NY 10010"]}, "phone": "+12122423491", "display_phone": "(212) 242-3491", "distance": 2195.489993372732}, {"id": "elWIigHM2IfrdzzYIxcvgA", "alias": "corima-new-york", "name": "Corima", "image_url": "https://s3-media1.fl.yelpcdn.com/bphoto/1kFCipRlC62B7fsxSg8pQQ/o.jpg", "is_closed": false, "url": "https://www.yelp.com/biz/corima-new-york?adjust_creative=uVENxkrx5WKqWp2fTdTrzg&utm_campaign=yelp_api_v3&utm_medium=api_v3_business_search&utm_source=uVENxkrx5WKqWp2fTdTrzg", "review_count": 7, "categories": [{"alias": "mexican", "title": "Mexican"}], "rating": 5.0, "coordinates": {"latitude": 40.71465390367611, "longitude": -73.99300411224878}, "transactions": [], "location": {"address1": "3 Allen St", "address2": "", "address3": null, "city": "New York", "zip_code": "10002", "country": "US", "state": "NY", "display_address": ["3 Allen St", "New York, NY 10002"]}, "phone": "", "display_phone": "", "distance": 5211.439333448734}, {"id": "WZynqsGjqQLc_T8R80_-7g", "alias": "yellow-rose-new-york", "name": "Yellow Rose", "image_url": "https://s3-media2.fl.yelpcdn.com/bphoto/n2l2ahO6ev2PoIIKWzOo4Q/o.jpg", "is_closed": false, "url": "https://www.yelp.com/biz/yellow-rose-new-york?adjust_creative=uVENxkrx5WKqWp2fTdTrzg&utm_campaign=yelp_api_v3&utm_medium=api_v3_business_search&utm_source=uVENxkrx5WKqWp2fTdTrzg", "review_count": 178, "categories": [{"alias": "tex-mex", "title": "Tex-Mex"}], "rating": 4.2, "coordinates": {"latitude": 40.732575, "longitude": -73.98806909999999}, "transactions": ["pickup", "delivery"], "location": {"address1": "102 3rd Ave", "address2": "", "address3": null, "city": "New York", "zip_code": "10003", "country": "US", "state": "NY", "display_address": ["102 3rd Ave", "New York, NY 10003"]}, "phone": "+12125298880", "display_phone": "(212) 529-8880", "distance": 3177.3658907704717}, {"id": "SXWnyFNLCehVlJPRxk7gAg", "alias": "anejo-tribeca-new-york-3", "name": "Anejo Tribeca", "image_url": "https://s3-media1.fl.yelpcdn.com/bphoto/xq-FRMmNWBpcV-vjiJ2xhg/o.jpg", "is_closed": false, "url": "https://www.yelp.com/biz/anejo-tribeca-new-york-3?adjust_creative=uVENxkrx5WKqWp2fTdTrzg&utm_campaign=yelp_api_v3&utm_medium=api_v3_business_search&utm_source=uVENxkrx5WKqWp2fTdTrzg", "review_count": 678, "categories": [{"alias": "mexican", "title": "Mexican"}, {"alias": "tapasmallplates", "title": "Tapas/Small Plates"}, {"alias": "tapas", "title": "Tapas Bars"}], "rating": 4.1, "coordinates": {"latitude": 40.71931499731559, "longitude": -74.00427174111186}, "transactions": ["pickup", "delivery"], "price": "$$", "location": {"address1": "301 Church St", "address2": "", "address3": "", "city": "New York", "zip_code": "10013", "country": "US", "state": "NY", "display_address": ["301 Church St", "New York, NY 10013"]}, "phone": "+12129206270", "display_phone": "(212) 920-6270", "distance": 5039.574838385653}, {"id": "TgoYhgbPCYhLBNtpue3QHg", "alias": "maya-new-york", "name": "Maya", "image_url": "https://s3-media2.fl.yelpcdn.com/bphoto/kWwazFLapTXYMFUSSGbiUQ/o.jpg", "is_closed": false, "url": "https://www.yelp.com/biz/maya-new-york?adjust_creative=uVENxkrx5WKqWp2fTdTrzg&utm_campaign=yelp_api_v3&utm_medium=api_v3_business_search&utm_source=uVENxkrx5WKqWp2fTdTrzg", "review_count": 1094, "categories": [{"alias": "mexican", "title": "Mexican"}], "rating": 3.7, "coordinates": {"latitude": 40.7631741, "longitude": -73.9597236}, "transactions": ["pickup", "delivery"], "price": "$$$", "location": {"address1": "1191 1st Ave", "address2": "", "address3": "", "city": "New York", "zip_code": "10065", "country": "US", "state": "NY", "display_address": ["1191 1st Ave", "New York, NY 10065"]}, "phone": "+12125851818", "display_phone": "(212) 585-1818", "distance": 1615.295251935487}, {"id": "nrwOQSXoRXfAYhkdjiUk8g", "alias": "toro-loco-new-york", "name": "Toro Loco", "image_url": "https://s3-media1.fl.yelpcdn.com/bphoto/19MVgwMFgedsHcZ_nwgpEQ/o.jpg", "is_closed": false, "url": "https://www.yelp.com/biz/toro-loco-new-york?adjust_creative=uVENxkrx5WKqWp2fTdTrzg&utm_campaign=yelp_api_v3&utm_medium=api_v3_business_search&utm_source=uVENxkrx5WKqWp2fTdTrzg", "review_count": 469, "categories": [{"alias": "cocktailbars", "title": "Cocktail Bars"}, {"alias": "mexican", "title": "Mexican"}, {"alias": "breakfast_brunch", "title": "Breakfast & Brunch"}], "rating": 4.0, "coordinates": {"latitude": 40.70421, "longitude": -74.01208}, "transactions": ["pickup", "delivery"], "price": "$$", "location": {"address1": "15 Stone St", "address2": null, "address3": "", "city": "New York", "zip_code": "10004", "country": "US", "state": "NY", "display_address": ["15 Stone St", "New York, NY 10004"]}, "phone": "+19172620444", "display_phone": "(917) 262-0444", "distance": 6845.025266309657}, {"id": "9aJ1MVTthZw3QjqoG7mPjg", "alias": "rosies-new-york-2", "name": "Rosie's", "image_url": "https://s3-media3.fl.yelpcdn.com/bphoto/C9A5CTge_V6psfuOq04txw/o.jpg", "is_closed": false, "url": "https://www.yelp.com/biz/rosies-new-york-2?adjust_creative=uVENxkrx5WKqWp2fTdTrzg&utm_campaign=yelp_api_v3&utm_medium=api_v3_business_search&utm_source=uVENxkrx5WKqWp2fTdTrzg", "review_count": 905, "categories": [{"alias": "mexican", "title": "Mexican"}], "rating": 3.9, "coordinates": {"latitude": 40.72493398880827, "longitude": -73.99062355504286}, "transactions": ["pickup", "delivery"], "price": "$$", "location": {"address1": "29 E 2nd St", "address2": null, "address3": "", "city": "New York", "zip_code": "10003", "country": "US", "state": "NY", "display_address": ["29 E 2nd St", "New York, NY 10003"]}, "phone": "+12123350114", "display_phone": "(212) 335-0114", "distance": 4053.8246609093817}, {"id": "kn9rgR4KlvyTTi-s76OIaQ", "alias": "toloache-82nd-new-york", "name": "Toloache 82nd", "image_url": "https://s3-media3.fl.yelpcdn.com/bphoto/0vpAZz3AwLSD5IDg_kMXJA/o.jpg", "is_closed": false, "url": "https://www.yelp.com/biz/toloache-82nd-new-york?adjust_creative=uVENxkrx5WKqWp2fTdTrzg&utm_campaign=yelp_api_v3&utm_medium=api_v3_business_search&utm_source=uVENxkrx5WKqWp2fTdTrzg", "review_count": 514, "categories": [{"alias": "mexican", "title": "Mexican"}, {"alias": "tex-mex", "title": "Tex-Mex"}], "rating": 3.9, "coordinates": {"latitude": 40.776483, "longitude": -73.956708}, "transactions": ["pickup", "delivery"], "price": "$$$", "location": {"address1": "166 E 82nd St", "address2": "", "address3": "", "city": "New York", "zip_code": "10028", "country": "US", "state": "NY", "display_address": ["166 E 82nd St", "New York, NY 10028"]}, "phone": "+12128614505", "display_phone": "(212) 861-4505", "distance": 2576.8703773584866}, {"id": "_2jMPuiK-7nLepFdPu2TTQ", "alias": "345-cantina-new-york", "name": "345 Cantina", "image_url": "https://s3-media1.fl.yelpcdn.com/bphoto/U3P5xFUhcX6jlYmgpkZ7IQ/o.jpg", "is_closed": false, "url": "https://www.yelp.com/biz/345-cantina-new-york?adjust_creative=uVENxkrx5WKqWp2fTdTrzg&utm_campaign=yelp_api_v3&utm_medium=api_v3_business_search&utm_source=uVENxkrx5WKqWp2fTdTrzg", "review_count": 30, "categories": [{"alias": "mexican", "title": "Mexican"}, {"alias": "cocktailbars", "title": "Cocktail Bars"}, {"alias": "breakfast_brunch", "title": "Breakfast & Brunch"}], "rating": 4.5, "coordinates": {"latitude": 40.72665, "longitude": -73.98651}, "transactions": ["restaurant_reservation"], "location": {"address1": "345 E 6th St", "address2": null, "address3": "", "city": "New York", "zip_code": "10003", "country": "US", "state": "NY", "display_address": ["345 E 6th St", "New York, NY 10003"]}, "phone": "+13478487734", "display_phone": "(347) 848-7734", "distance": 3789.796352620622}, {"id": "10tnq8x2qI7ix7VqVP0rMw", "alias": "tacombi-upper-west-side-new-york", "name": "Tacombi", "image_url": "https://s3-media3.fl.yelpcdn.com/bphoto/sW5qaZt-LxMIMgbeYBDVHA/o.jpg", "is_closed": false, "url": "https://www.yelp.com/biz/tacombi-upper-west-side-new-york?adjust_creative=uVENxkrx5WKqWp2fTdTrzg&utm_campaign=yelp_api_v3&utm_medium=api_v3_business_search&utm_source=uVENxkrx5WKqWp2fTdTrzg", "review_count": 286, "categories": [{"alias": "tacos", "title": "Tacos"}], "rating": 3.7, "coordinates": {"latitude": 40.78261049298808, "longitude": -73.97844461874793}, "transactions": ["pickup", "delivery"], "price": "$$", "location": {"address1": "377 Amsterdam Ave", "address2": "", "address3": null, "city": "New York", "zip_code": "10024", "country": "US", "state": "NY", "display_address": ["377 Amsterdam Ave", "New York, NY 10024"]}, "phone": "+16468223383", "display_phone": "(646) 822-3383", "distance": 2490.2767819110913}, {"id": "PAJdNrD4HFBN16OAFeDx4A", "alias": "ponche-taqueria-and-cantina-new-york", "name": "Ponche Taqueria & Cantina", "image_url": "https://s3-media1.fl.yelpcdn.com/bphoto/Dv4u1m1jnjTbQl4s1zZVBg/o.jpg", "is_closed": false, "url": "https://www.yelp.com/biz/ponche-taqueria-and-cantina-new-york?adjust_creative=uVENxkrx5WKqWp2fTdTrzg&utm_campaign=yelp_api_v3&utm_medium=api_v3_business_search&utm_source=uVENxkrx5WKqWp2fTdTrzg", "review_count": 570, "categories": [{"alias": "mexican", "title": "Mexican"}], "rating": 4.1, "coordinates": {"latitude": 40.76319, "longitude": -73.99045}, "transactions": ["delivery"], "price": "$$", "location": {"address1": "420 W 49th St", "address2": "", "address3": "", "city": "New York", "zip_code": "10019", "country": "US", "state": "NY", "display_address": ["420 W 49th St", "New York, NY 10019"]}, "phone": "+12125811235", "display_phone": "(212) 581-1235", "distance": 1062.2165854519526}, {"id": "dgaNriM1VdI2nGochhHE_g", "alias": "casa-enrique-long-island-city", "name": "Casa Enrique", "image_url": "https://s3-media1.fl.yelpcdn.com/bphoto/gR2Urh_9e7bTvVf3W7acog/o.jpg", "is_closed": false, "url": "https://www.yelp.com/biz/casa-enrique-long-island-city?adjust_creative=uVENxkrx5WKqWp2fTdTrzg&utm_campaign=yelp_api_v3&utm_medium=api_v3_business_search&utm_source=uVENxkrx5WKqWp2fTdTrzg", "review_count": 1544, "categories": [{"alias": "mexican", "title": "Mexican"}], "rating": 4.2, "coordinates": {"latitude": 40.743404338358, "longitude": -73.954350367693}, "transactions": ["pickup", "delivery"], "price": "$$", "location": {"address1": "5-48 49th Ave", "address2": "", "address3": "", "city": "Long Island City", "zip_code": "11101", "country": "US", "state": "NY", "display_address": ["5-48 49th Ave", "Long Island City, NY 11101"]}, "phone": "+13474486040", "display_phone": "(347) 448-6040", "distance": 2762.6733525367663}, {"id": "NOh24SMS6k4pzNv8Ds7KDg", "alias": "cafe-habana-new-york-4", "name": "Cafe Habana", "image_url": "https://s3-media3.fl.yelpcdn.com/bphoto/cUHxmLdN0XyZi6AgvaMb3Q/o.jpg", "is_closed": false, "url": "https://www.yelp.com/biz/cafe-habana-new-york-4?adjust_creative=uVENxkrx5WKqWp2fTdTrzg&utm_campaign=yelp_api_v3&utm_medium=api_v3_business_search&utm_source=uVENxkrx5WKqWp2fTdTrzg", "review_count": 3315, "categories": [{"alias": "cuban", "title": "Cuban"}, {"alias": "mexican", "title": "Mexican"}], "rating": 4.0, "coordinates": {"latitude": 40.72293, "longitude": -73.99419}, "transactions": ["pickup", "delivery"], "price": "$$", "location": {"address1": "17 Prince St", "address2": "", "address3": "", "city": "New York", "zip_code": "10012", "country": "US", "state": "NY", "display_address": ["17 Prince St", "New York, NY 10012"]}, "phone": "+12126252001", "display_phone": "(212) 625-2001", "distance": 4351.264113969411}, {"id": "RzKR9QcYP03EQ_8DxTxowg", "alias": "barrio-chino-new-york", "name": "Barrio Chino", "image_url": "https://s3-media4.fl.yelpcdn.com/bphoto/Yq2euvNpzGXbg4WrOxUsrA/o.jpg", "is_closed": false, "url": "https://www.yelp.com/biz/barrio-chino-new-york?adjust_creative=uVENxkrx5WKqWp2fTdTrzg&utm_campaign=yelp_api_v3&utm_medium=api_v3_business_search&utm_source=uVENxkrx5WKqWp2fTdTrzg", "review_count": 1181, "categories": [{"alias": "mexican", "title": "Mexican"}, {"alias": "bars", "title": "Bars"}], "rating": 3.9, "coordinates": {"latitude": 40.718022, "longitude": -73.990026}, "transactions": ["pickup", "delivery"], "price": "$$", "location": {"address1": "253 Broome St", "address2": null, "address3": "", "city": "New York", "zip_code": "10002", "country": "US", "state": "NY", "display_address": ["253 Broome St", "New York, NY 10002"]}, "phone": "+12122286710", "display_phone": "(212) 228-6710", "distance": 4791.069494550982}, {"id": "clTandR9fDd4OaREI8qTsQ", "alias": "el-tepeyac-taqueria-new-york-9", "name": "El Tepeyac Taqueria", "image_url": "https://s3-media4.fl.yelpcdn.com/bphoto/8lMY7wqajHWzp1-BNRhaaA/o.jpg", "is_closed": false, "url": "https://www.yelp.com/biz/el-tepeyac-taqueria-new-york-9?adjust_creative=uVENxkrx5WKqWp2fTdTrzg&utm_campaign=yelp_api_v3&utm_medium=api_v3_business_search&utm_source=uVENxkrx5WKqWp2fTdTrzg", "review_count": 19, "categories": [{"alias": "mexican", "title": "Mexican"}], "rating": 3.9, "coordinates": {"latitude": 40.78665, "longitude": -73.95019}, "transactions": ["pickup", "delivery"], "location": {"address1": "1505 Lexington Ave", "address2": null, "address3": "", "city": "New York", "zip_code": "10029", "country": "US", "state": "NY", "display_address": ["1505 Lexington Ave", "New York, NY 10029"]}, "phone": "+12127222020", "display_phone": "(212) 722-2020", "distance": 3786.124265697531}]